title,Lat,Long,Date
Administration makes case for emergency Ebola funds #ebola http://t.co/O95M0zN3Xl or http://t.co/y4XQ8SnNrU,12.876303769802764,0.23236044913816567,01/09/2014 02:43 PM
RT @UmaruFofana: #SierraLeone confirms 94 new #Ebola cases today with 53 in Freetown &amp; environs. It brings to 295 new cases in last 3 days.,14.62152847834058,3.842608269873775,01/10/2014 03:03 AM
Who will pay to stop Ebola?   http://t.co/hOeAMv3cZS  #americanpublic #ebola,14.238728724363979,3.715895369440199,01/10/2014 12:01 AM
Administration makes case for emergency Ebola funds #ebola http://t.co/ubM12j56KP,15.552209440314558,3.5739543812802417,01/10/2014 12:28 AM
RT @UmaruFofana: #SierraLeone confirms 94 new #Ebola cases today with 53 in Freetown &amp; environs. It brings to 295 new cases in last 3 days.,13.346282723858545,2.769126000443405,01/09/2014 10:07 PM
NOW LISTEN TO .@PoliticalJones tkg #Ebola &amp; #PublicHealth w/ .@docgriggs: http://t.co/mWLo4Vg446  http://t.co/43p3fkgWNS,10.744880724338065,5.127696393179482,01/09/2014 07:04 AM
"#Ebola death toll passes 5,000-mark: WHO",14.209300288022902,2.7344185349386834,01/09/2014 07:49 PM
African football latest victim of #Ebola after Morocco expelled from Cup of Nations tournament http://t.co/UahOe1lscZ http://t.co/IuHzjq6DFJ,12.1673606997297,2.6192352836759305,01/10/2014 03:50 AM
Kim Kardashian Distracting us from what\'s really going on... #ebola,14.68611937828154,0.39610596269583365,01/09/2014 05:06 PM
RT @RT_com: #US nurses strike over insufficient #Ebola protections http://t.co/iCYbZDlQkv http://t.co/CYku6t0gVU,14.940591146018956,0.009193314072587722,01/08/2014 07:38 PM
RT @LukeRussert: #USA media needs 2 b more concerned w 22 vets committing suicide a day &amp; vet unemployment rate than #Ebola or #MH370 http:‚Ä¶,13.435504632473297,4.323453583274533,01/08/2014 05:46 PM
"In Wake of #Ebola, Dentist Aims to Keep the Well... Well | #HIPAA #cloud http://t.co/BYHrFZNGNV",10.810560737440733,3.860392357600375,01/08/2014 01:57 PM
"Mali battles Ebola outbreak as African death toll passes 5,000 #mali #ebola. http://t.co/39ORXIj7KQ",10.775060268544488,3.2121276390487523,01/09/2014 11:30 AM
RT @Crof: #Ebola in Liberia: New cases in Grand Bassa county http://t.co/v5eSoTxZ09,13.433491900172084,4.3436928462547115,01/09/2014 05:55 AM
#Ebola outbreak deaths pass 5000 - BBC News http://t.co/u6KfswK3D7,15.936343212756078,3.3548522344173586,01/10/2014 04:32 AM
RT @AsCorrespondent: UN\'s Ban Ki-moon calls on Asia to step up #Ebola fight  http://t.co/yH3UkYPXfX  #Asia http://t.co/uv1hXYFXtM,15.571007521861162,0.9594311900478765,01/09/2014 01:39 PM
#CDC Covers Up #Ebola Information: http://t.co/LzBPwxSgUV via @YouTube,13.479339224567305,4.206889829909809,01/10/2014 04:10 AM
RT @FollowEbola: #Ebola crisis: Mali confirms second death. http://t.co/Z3nUvvefli,10.670413867301924,0.2648093557043185,01/09/2014 10:49 AM
Who plays a vital role in the care of patients with #Ebola? #Nurses do. http://t.co/nPJQT5OlcD via @rwjf,14.056787189202876,4.488536352246784,01/09/2014 08:14 PM
RT @FollowEbola: Bats Link to #Ebola Finally Solved. http://t.co/NsVsBM0486,12.78945189571598,2.2382950959367944,01/09/2014 03:01 PM
RT @makoto_au_japon: #WHO strives to enhance int\'l clinics readiness to prevent #Ebola spread - expert http://t.co/DlTVEBMTNj #GCC #Gulf,14.738710859840284,4.442802403526144,01/08/2014 10:46 PM
RT @makoto_au_japon: #MSF moves #Ebola preparedness training #online http://t.co/mLMy03Icyi #Africa,12.497626473111286,4.089466067339305,01/09/2014 01:44 PM
RT @makoto_au_japon: The Fight Against #Ebola Could Lead to Surge in #Measles and #Malaria http://t.co/iYXhw6qyP7 #Africa via @vivwalt,15.563295138299292,1.8314162984600322,01/08/2014 09:14 PM
RT @CHRISTMAS_EVIL: #CometLandingPeople on the moon = hoax.Washing machine on comet = same gag. Spend the money looking for #MH370 an‚Ä¶,11.457485968646852,2.4693796910539993,01/09/2014 07:57 PM
RT @dulaney_l: Did the U.S. Just Secretly Fly in an #African #Ebola Patient? http://t.co/P3ZdDbp8xp via @po_st  #obama #georgia,15.946134394836163,3.885608247561019,01/10/2014 03:25 AM
RT @makoto_au_japon: #Rwanda:Bayingana blasts teams for snubbing #Tour du Rwanda over #Ebola fears http://t.co/ywLflGJtSG #Africa #Cycling ‚Ä¶,15.415485334915203,4.746094834693493,01/09/2014 08:36 AM
RT @drmannyonFOX: I\'ll be on #TheKellyFile tonight at 9PM ET talking about why I think @DrFriedenCDC should step down. #EBOLA,16.338682905116595,4.782159311933211,01/09/2014 06:01 PM
RT @makoto_au_japon: #Japan Donates #Ebola Preventive Kit To #Ghana http://t.co/deHXMFwGLB #Africa #donation http://t.co/tJHDuMOdS2,13.1496402140627,1.0058121340989272,01/09/2014 03:04 AM
RT @makoto_au_japon: #Japan: #Tokyo Govt Conducts #Ebola Response #Drill http://t.co/5tc8kINGKl #hospital,11.783761448130223,1.1193634962684296,01/09/2014 03:04 PM
RT @makoto_au_japon: #Japan: #Tokyo conducts #Ebola #drill http://t.co/265CMMfF1r #hospital,10.914039045304646,2.1962530510753457,01/09/2014 11:39 AM
RT @Liberationtech: Deploying Technology in the Fight Against #Ebola http://t.co/DYuOrgI7hk by @drjohnbates,12.439806000349767,2.9500773173094963,01/10/2014 01:43 AM
RT @RT_com: #US nurses strike over insufficient #Ebola protections http://t.co/iCYbZDlQkv http://t.co/CYku6t0gVU,12.637349321986875,3.653420177571972,01/10/2014 01:44 AM
RT @makoto_au_japon: #Samoa to stop incoming flights to prevent #Ebola http://t.co/yeD234Of65 #Africa #travel #guideline,12.008119357214492,0.9767823774091535,01/09/2014 12:45 AM
RT @makoto_au_japon: #US: #Georgia health officials refuse to name #Ebola hospitals http://t.co/tRZhgBc7RR #hospital,13.304543334015765,1.4825983493127035,01/09/2014 10:44 AM
#Ebola Lawmakers question Obama&amp;#039;s $6-billion request for Ebola funding   http://t.co/yxN1WGkCYn http://t.co/yg2fQkuHg6,12.375135573245702,3.059622601722485,01/08/2014 02:44 PM
RT @makoto_au_japon: #Trinidad &amp; #Tobago: #Ebola treatment centre ready http://t.co/aVZtt79dsY #TT #Caribbean,10.640852404313325,2.174415331479721,01/08/2014 08:19 PM
@UNDP providing important fail safe in fight against #Ebola. http://t.co/a0D7Q7QZ8x @UNMEER @DougUNDP @HelenClarkUNDP,16.17768959380599,5.102632199836948,01/09/2014 07:17 PM
RT @makoto_au_japon: #Israel: Watch: Israel sending #Ebola field hospital and staff to #Africa (Video) http://t.co/UqNdcDO8x1,10.599697911855683,-0.21319752411711157,01/08/2014 06:05 PM
RT @InfoEbola: ‚ÄúYour Blood Tested Positive for #Ebola. I Am Sorry.‚ÄùRead Dr. Ada Ignohoh\'s story. Posted online by Bill Gates... http://t.‚Ä¶,12.391883727640117,2.003644242397032,01/09/2014 01:36 AM
A Poem: On the Arrival of Ebola in New York   http://t.co/lg5zqqrEtd  #ebola #funny #humor via @humortimes,15.531391341088668,5.096243806021756,01/09/2014 02:36 AM
"RT @makoto_au_japon: #Kazakhstan: No Kazakhstanis contracted #Ebola #virus in #Africa, MFA http://t.co/JxzKkKAA9K #Kazakh",15.35169598296752,2.702586376950197,01/09/2014 11:49 PM
"RT @seanparnell: British PM makes #ebola a #G20 priority. Aust PM last week said \""I don\'t think at this stage we want to over-estimate the ‚Ä¶",14.680792816390133,2.0627653743920353,01/09/2014 04:05 AM
RT @RT_com: #US nurses strike over insufficient #Ebola protections http://t.co/iCYbZDlQkv http://t.co/CYku6t0gVU,15.799843549643779,5.0305937332858335,01/09/2014 06:02 AM
RT @makoto_au_japon: #Russia to begin testing its #Ebola drugs http://t.co/mi5rIu4IMC #Africa #drug,14.782258976481792,3.863626634460732,01/10/2014 01:56 AM
RT @RT_com: #US nurses strike over insufficient #Ebola protections http://t.co/iCYbZDlQkv http://t.co/CYku6t0gVU,13.37172563736312,5.2178916274516345,01/09/2014 05:19 AM
RT @makoto_au_japon: #APEC leaders determined to jointly fight #Ebola: Xi http://t.co/cJD6HVIAWi #China,12.587784136801817,2.400767215748229,01/08/2014 06:06 PM
Good to hear Joe Hockey confirm #Ebola is on the agenda at #G20 - plus this from David Cameron earlier http://t.co/LJCUwU3Air,10.886199202709584,5.258721607077381,01/09/2014 05:06 PM
Fran just told me she loved me and she doesn\'t want anything üòü #EBOLA???,14.816505286868994,4.2499117952783445,01/10/2014 01:02 AM
"RT @kasujja: Africa, the land of simba, Cleopatra...oh and #Ebola! According to @TMZ.  Really? Humour? Ignorance? Indifference? http://t.co‚Ä¶",15.618904854449113,2.6405898832353456,01/08/2014 06:19 PM
Deploying Technology in the Fight Against #Ebola http://t.co/DYuOrgI7hk by @drjohnbates,13.316070508953679,0.9826432477687657,01/10/2014 02:15 AM
Clinical Care of Two Patients with #Ebola Virus Disease in the United States http://t.co/300NOKkpiy,14.890860550120838,4.745869569624522,01/10/2014 04:41 AM
RT @NewsonEbola: #Ebola #EbolaOutbreak Thomas Eric Duncan\'s Family Reaches \'Resolution\' With Dallas Hospital In Ebola Case http://t.co/DIcW‚Ä¶,16.434177337658607,1.9568958939829733,01/08/2014 05:06 PM
RT @RainaMacIntyre: #Ebola and why it matters - 10 min summary &amp; what you can do @UNSW Alliance against Ebola. http://t.co/SfbP7taVSH  @Joe‚Ä¶,15.352463236479396,5.189162698165873,01/09/2014 06:10 PM
"RT @dulaney_l: As If #Ebola Weren\'t Bad Enough, Here\'s Another Deadly #Disease Invading America Across The #Border http://t.co/SDvDIy4rzv v‚Ä¶",14.154669706012871,-0.48485644158044927,01/10/2014 02:43 AM
#Ebola season 3 ep13 http://t.co/zwrYpoElgq,15.016339426582277,3.9435451271942563,01/09/2014 01:38 AM
"RT seanparnell: British PM makes #ebola a #G20 priority. Aust PM last week said \""I don\'t think at this stage we want to over-estimate the...",14.686069745950583,5.3590225681983155,01/09/2014 09:46 AM
"RT @WBUR: As health workers fight to control the #Ebola outbreak, are there lessons from the Boston 1721 smallpox epidemic? http://t.co/hyM‚Ä¶",15.207117236551891,1.7502056557007322,01/09/2014 03:39 PM
RT @YaThinkN: Thank you @antloewenstein about bloody time #Ebola profiteering at expense of qualified NGO was pointed out :( http://t.co/gp‚Ä¶,12.789410707031829,5.000008893599231,01/09/2014 11:23 AM
"http://t.co/C92r11cNG8 Rhode Island, US: 15 Being Monitored for #Ebola #Ebola Alerts",15.450134460012421,0.5065217667643342,01/08/2014 02:04 PM
RT @RT_com: #US nurses strike over insufficient #Ebola protections http://t.co/iCYbZDlQkv http://t.co/CYku6t0gVU,14.690640008586998,4.631376916078218,01/09/2014 08:24 AM
"#Ebola outbreak: deaths exceed 5000, WHO says - CBC.ca http://t.co/x1xemg2kar",14.223235489954586,2.0528462596753947,01/08/2014 06:43 PM
Family of #ThomasDuncan settles with Dallas hospital #Ebola http://t.co/sU8sUVFwHo http://t.co/SZaOHQxxDH,12.838616444246696,0.8295955620700022,01/09/2014 02:04 PM
"‚Äú@UCSF: Clinician @DanKelly_MD returning from Sierra Leone \""more hopeful than ever\"" that #Ebola will be eradicated http://t.co/0rxdHyOz7H‚Äù",16.199659899689898,0.015733779962042505,01/08/2014 03:52 PM
RT @NewsonEbola: #Ebola #EbolaOutbreak Thomas Eric Duncan\'s Family Reaches \'Resolution\' With Dallas Hospital In Ebola Case http://t.co/DIcW‚Ä¶,13.910393156236658,0.638219986133834,01/09/2014 02:31 AM
RT @LukeRussert: #USA media needs 2 b more concerned w 22 vets committing suicide a day &amp; vet unemployment rate than #Ebola or #MH370 http:‚Ä¶,14.948424812246298,2.4478797293991548,01/09/2014 12:43 PM
"British PM makes #ebola a #G20 priority. Aust PM last week said \""I don\'t think at this stage we want to over-estimate the impact of ebola..\"",""British PM makes #ebola a #G20 priority. Aust PM last week said \""I don\'t think at this stage we want to over-estimate the impact of ebola..\"",""Twitter for iPad",14.357002129837948,-0.21021567000414,01/09/2014 04:20 AM
"RT @UNMEER: .@UNBanbury tells @UN_Radio: international community must \""get ahead\"" of #Ebola outbreak - http://t.co/dm7RqErtPf http://t.co/F‚Ä¶",15.386617508212577,3.9312802153762076,01/08/2014 10:21 PM
RT @YourAnonGlobal: #US nurses strike over insufficient #Ebola protections http://t.co/mYv6Aget3r http://t.co/GMGV5KtPVg,14.417165326916713,1.127867845322405,01/09/2014 01:32 PM
"RT @SavetheChildren: #Ebola Crisis at a \""Tipping Point:\"" 2.5 Million Children under 5 Live in Affected Areas http://t.co/6Rgwvi5OJw",16.140297376012043,1.0382853570294366,01/09/2014 05:57 AM
"RT @FollowEbola: Children Are More Likely To Survive #Ebola, And Now Scientists May Know Why. http://t.co/g2kgNbjg4N",11.455449931447957,3.028031237452293,01/09/2014 11:40 AM
Via @nprnews: #Ebola In 3-D: A Video #Game To Guide Health Care Workers Through A Ward http://t.co/pmxaIKHH8a #sims,11.952852316053464,0.5420316765775763,01/08/2014 10:14 PM
Whoop whoop haha #ebola http://t.co/C6LU9CoJLe,14.629345444193056,4.088311118758497,01/09/2014 02:27 PM
How can you help turn the world around &amp; stop our economic collapse? http://t.co/NXOwlbLDeI #GoldOutofHiding#EBOLA #EBOLAANSWERS #ebolaar,13.304484437653148,0.3423211960047192,01/09/2014 06:46 PM
RT @amaausmed: .@amapresident has urged Govt to consider deploying AUSMAT teams to join fight against #Ebola in west Africa https://t.co/bU‚Ä¶,11.603592434289165,4.074202633165252,01/08/2014 05:23 PM
"RT @GerardBest: #Ebola death toll tops 5,000--WHO http://t.co/TepwFpmnX2 http://t.co/fqdQfNOUyu",16.366597517812693,1.2556790603444845,01/08/2014 10:08 PM
RT @kakape: And in other #Ebolanoia news: Morocco is expelled from soccer tournament for refusing to host it due to #Ebola fears http://t.c‚Ä¶,15.744404983417525,1.8262784943000918,01/09/2014 06:58 PM
RT @Campaign4Action: .@CDCgov issues new #ebola guidelines for emergency departments http://t.co/POIH4G3IDs,15.441179042921723,4.894096429528392,01/08/2014 03:49 PM
#Ebola World View: Who Has It and Where #TexasHealthPresbyterian #WhereDuncan http://t.co/Lyx42f3DcI http://t.co/NVgHGynguW,13.989077937099434,2.4096489233045464,01/09/2014 08:03 PM
RT @PHammondMP: Good to meet @presidentkoroma Impressed at his commitment to keep fighting #Ebola http://t.co/XImMIu9Nt4,12.801626522403247,4.965706904507848,01/09/2014 08:58 AM
RT @lajouetreine: #US nurses strike over insufficient #Ebola protections http://t.co/vEwkK2U8p6 http://t.co/UPygTXwkbp,10.722001074469528,3.933711502644921,01/08/2014 04:35 PM
Remember #Ebola? It\'s Still A Huge Problem - Health Care Edge. http://t.co/yeb4borm5a,11.49038949610105,4.890394975240707,01/09/2014 12:38 PM
Rage Against the #Ebola Crematorium. http://t.co/RhvUJIIzZ8,11.612079342017775,3.265221187355745,01/08/2014 04:28 PM
RT @GeneticLiteracy: Who decides who gets treatments in #Ebola #drug trials? via @Nature http://t.co/O73byneXM2,14.954464278019485,4.633289270014108,01/08/2014 06:23 PM
"RT @FluTrackers: #Mali - Reported #ebola case who died was a nurse, 1 other possible health care worker being tested http://t.co/zsU7asO7cm‚Ä¶",14.232693042944828,3.3510483981678165,01/08/2014 02:49 PM
RT @SenateApprops Read witness testimony including @SHEA_Epi &amp; other info from today\'s #Ebola hearing: http://t.co/17QKCKnd1U,11.367358739292893,3.331280604653374,01/10/2014 01:58 AM
Yo Everybody Is Getting Sick Dawg üò≥ Thats That #Ebola Creeping up üòï jk.. I hope üò≠ https://t.co/NkEDB0yrIz,11.34003780961409,3.679619322615837,01/09/2014 01:16 PM
#KatieHopkins : if #Ebola had a face.,11.028095467891223,0.42914832066116126,01/08/2014 09:46 PM
RT @UNICEF: 2014 could be the year progress to end #measles and #malaria slides back. And it‚Äôs because of #Ebola http://t.co/6SgN1ZxQAK via‚Ä¶,15.010499806062704,2.369555725366703,01/09/2014 03:38 AM
Remember #Ebola? It\'s Still A Huge Problem - Health Care Edge. http://t.co/xXHHIeaR6j,16.24233328698277,3.7573547471209876,01/09/2014 05:13 AM
Rage Against the #Ebola Crematorium. http://t.co/nai944hpUA,11.430278547961313,4.0718641591125815,01/09/2014 06:31 AM
#US nurses strike over insufficient #Ebola protections http://t.co/BGsg1jWb2M http://t.co/b16AZiIHrt,10.777720534296751,3.4628532135381,01/08/2014 02:38 PM
First @facebook and now @google are asking me for money for #Ebola. What about more relevant diseases?,11.838880836795498,2.431497944436832,01/09/2014 04:20 AM
"RT @picardonhealth: First Outbreak Quashed, #Ebola Reappears in #Mali  http://t.co/PfzAmGS78Z via @nytimes",14.1039579143158,-0.5016698548562459,01/09/2014 12:35 PM
RT @RT_com: #US nurses strike over insufficient #Ebola protections http://t.co/iCYbZDlQkv http://t.co/CYku6t0gVU,15.437460411244446,-0.3841555520869817,01/09/2014 04:02 AM
RT @LukeRussert: #USA media needs 2 b more concerned w 22 vets committing suicide a day &amp; vet unemployment rate than #Ebola or #MH370 http:‚Ä¶,15.710547860473621,0.3842953040426895,01/09/2014 03:17 PM
#Thomas #Eric Duncans Family Receives Settlementl Over #Ebola #Death - Nov 12 @ 10:06 PM ET http://t.co/WDS21FiQcv,10.721083051969414,4.65570553963652,01/09/2014 07:45 PM
"RT @EndTimeHeadline: No district has gone untouched in #SierraLeone, where #Ebola has now been detected in every single area of the... http‚Ä¶",13.541716479403854,1.541418993775574,01/08/2014 09:37 PM
RT @MSF_USA: The #MSF team at #Khost maternity hospital in #Afghanistan supports colleagues fighting #Ebola in West Africa: http://t.co/Fxu‚Ä¶,13.415442953408267,0.021604031559570913,01/09/2014 02:43 PM
Experimental device Hemopurifier from @Aethlon_Medical was used to help treat an #Ebola patient who survived http://t.co/CmjQ8ZzL9l,11.461565984222746,2.101468377145255,01/09/2014 11:02 PM
Good perspective on how to think about treatment:Out of Africa ‚Äî Caring for Patients with #Ebola http://t.co/ClDzhnEM7q,14.54811166579632,3.558308271858251,01/09/2014 07:58 PM
"RT @NHPRExchange: Tmrw: NH #Ebola protocol w/ @JoseTMontero. Also, @emerrens, @BrighamWomens Dr. Baden, @pattywight. http://t.co/ozhWXc74XA‚Ä¶",14.427961738976357,1.5382387590693383,01/09/2014 08:22 PM
Programming &amp; Web Solutions http://t.co/RRAH0RqsaD #ebola http://t.co/hNun1EAbub,14.358120578588181,-0.48292199790215573,01/08/2014 05:05 PM
Nice report on Partners in Health doctor fighting #Ebola in Sierra Leone on .@NBCNightlyNews. Great org. that could use your #support .@PIH,13.094579867496378,0.14553616908054412,01/09/2014 03:46 PM
"RT @usatodayhealth: Hospital will pay Duncan\'s medical bills, set up charity http://t.co/4lfQ2Z3Wv2 via @USATODAY #ebola",10.75095772235629,0.10887839916703967,01/08/2014 04:40 PM
WHO reports 3 more #Ebola cases in #Mali http://t.co/a0rDhlW2Vo,13.322029884904559,-0.13070149733194558,01/10/2014 01:34 AM
RT @amaausmed: .@amapresident has urged Govt to consider deploying AUSMAT teams to join fight against #Ebola in west Africa https://t.co/bU‚Ä¶,15.267058807053942,5.099170449083907,01/09/2014 09:35 AM
RT @WhySharksMatter: Hey everyone who was reading #OutbreakChat tweets? You now have #ebola . SURPRISE!,12.617156532243701,0.7630242486185894,01/09/2014 07:42 PM
"RT @DavidQuammen: @sethmnookin @stevesilberman Thanks, Seth, Steve. Glad to report Ivory Coast calm, sane, so far #Ebola-free. But a story ‚Ä¶",15.09559031271883,4.132242997645022,01/09/2014 06:54 PM
"RT @ConservativeGi3: \""@SunNewsNetwork: Injectionless #Ebola vaccine successful in monkeys http://t.co/ZhvG5PhRSL\"",""RT @ConservativeGi3: \""@SunNewsNetwork: Injectionless #Ebola vaccine successful in monkeys http://t.co/ZhvG5PhRSL\"",""Twitter for Android",10.576497071434572,5.206371562653902,01/09/2014 01:12 PM
#Ebola #EbolaOutbreak Thomas Eric Duncan\'s Family Reaches \'Resolution\' With Dallas Hospital In Ebola Case http://t.co/DIcWjWOUBf,12.256617491609223,0.320671997481778,01/09/2014 05:32 AM
RT @LukeRussert: #USA media needs 2 b more concerned w 22 vets committing suicide a day &amp; vet unemployment rate than #Ebola or #MH370 http:‚Ä¶,13.081843656896282,3.5675354578892353,01/08/2014 03:41 PM
"UK is building six #ebola facilities in Sierra Leone. First run by Save the Children, second by Aspen Medical with up to $20m Aust funding.",11.925147018368875,0.018362379600123546,01/09/2014 11:04 PM
"Texas: Ebola Victim‚Äôs Family to Be Paid by Hospital, via @nytimes .it can\'t being back #ThomasEricDuncan back. #Ebola http://t.co/YBBQAUu5Et",10.706885576201302,4.272111510117045,01/09/2014 08:32 AM
RT @EmergencyMgtMag: 5 lessons in crisis communications from the #Ebola response: http://t.co/FgmYLo0BTt,10.87084092001102,0.7822898764404802,01/08/2014 05:17 PM
RT @WhySharksMatter: Hey everyone who was reading #OutbreakChat tweets? You now have #ebola . SURPRISE!,12.705937257141159,2.303843316088842,01/09/2014 02:31 PM
RT @LukeRussert: #USA media needs 2 b more concerned w 22 vets committing suicide a day &amp; vet unemployment rate than #Ebola or #MH370 http:‚Ä¶,13.109501157904283,1.0278293579046331,01/09/2014 02:25 AM
RT @CIDRAP: Senate committee probes proposed US #Ebola funding http://t.co/0kKkX2Nrri,14.194646258421301,5.247511584574876,01/09/2014 10:52 AM
TX #Ebola Victim‚Äôs Family Cashes In After Hospital Settlement. You LIE! Portray urself a Victim Get Paid BHOs America http://t.co/EnuHYVFD7E,15.95869984611536,-0.2277222502660079,01/09/2014 04:55 PM
RT @MarkMobius: #Ebola hasn‚Äôt affected our decision-making process when it comes to investing in Africa or elsewhere. http://t.co/RndtBuBETH,13.155055224975609,1.6755474043166472,01/08/2014 06:48 PM
RT @YaThinkN: Thank you @antloewenstein about bloody time #Ebola profiteering at expense of qualified NGO was pointed out :( http://t.co/gp‚Ä¶,10.885221984958818,1.030975816444582,01/08/2014 06:09 PM
RT @LukeRussert: #USA media needs 2 b more concerned w 22 vets committing suicide a day &amp; vet unemployment rate than #Ebola or #MH370 http:‚Ä¶,15.889629225301123,4.100432589010825,01/09/2014 12:10 AM
RT @JermaineWatkins: This: See... I knew #Ebola was a bigger worldwide threat than they admitted at jump. http://t.co/rtKgzXzwjk,11.566861679985074,2.288122067232206,01/09/2014 08:13 AM
RT @HazMedSolutions: There were fewer new cases of #Ebola in the week ended Nov. 4 than in any week the prior 3 months. #nytimes graphic ht‚Ä¶,11.18601549860323,1.6402512014050328,01/08/2014 10:06 PM
How Ebola healthcare workers get dressed http://t.co/RuZrVz1gih #ebola #health #tech #workplace #economy,11.578166318154963,-0.17757029412070313,01/08/2014 09:17 PM
#US nurses strike over insufficient #Ebola protections http://t.co/vEwkK2U8p6 http://t.co/UPygTXwkbp,15.366652300468699,5.0935116477099625,01/09/2014 01:55 PM
MSNBC On Moderator In NH Getting Facts Wron  http://t.co/A1If3hUpQm   #ebola #ebola-outbreak #health #breaking,15.96442548482641,2.6353265096742353,01/09/2014 04:18 PM
RT @LukeRussert: #USA media needs 2 b more concerned w 22 vets committing suicide a day &amp; vet unemployment rate than #Ebola or #MH370 http:‚Ä¶,14.358637583039222,4.626453964123558,01/08/2014 11:43 PM
"RT @WhySharksMatter: Interesting, some of the symptoms of #Ebola (bleeding from eyes, passing out, vomit) are also symptoms of watching thi‚Ä¶",15.953290837724943,0.6021010430659823,01/08/2014 09:33 PM
CDC Disease Detective Describes Chasing Ambulances as Part of #Ebola Response. #virus http://t.co/mUyjgavCzc,16.117765945974483,2.0011107195016606,01/09/2014 11:01 AM
"Oil Lamps, Mid Terms, and Tasers! New Episode 49! #Election2014 #NFL #NBCBlacklist #Worldseries#RollTide #ebola  http://t.co/IfJdxcL427",16.27621341103538,-0.3957204261066325,01/09/2014 02:24 AM
"YES, YES, YES! \""@PIH: #DrPaulFarmer\'s key principles on the #Ebola response: http://t.co/MJiiJ8k3TD http://t.co/1YtOGHcLGw\"" @Apollos77",13.914072026455928,3.433199014590542,01/09/2014 08:58 PM
Hey everyone who was reading #OutbreakChat tweets? You now have #ebola . SURPRISE!,11.976354163254587,-0.07484547217797166,01/08/2014 02:23 PM
RT @RT_com: #US nurses strike over insufficient #Ebola protections http://t.co/iCYbZDlQkv http://t.co/CYku6t0gVU,11.075886769223963,3.9655266152858593,01/09/2014 06:56 AM
RT @WHO: #Mali‚Äôs Ministry of Health has confirmed the country‚Äôs second #Ebola fatal case in a nurse who worked in Bamako http://t.co/oTsqKS‚Ä¶,15.389695258607043,5.137323007314987,01/10/2014 03:15 AM
RT @MarkMobius: #Ebola hasn‚Äôt affected our decision-making process when it comes to investing in Africa or elsewhere. http://t.co/RndtBuBETH,14.200088796143039,4.303347819695673,01/10/2014 04:08 AM
"RT @Laurie_Garrett: Today @UNDP took over payroll at #Liberia MinHlth. Some got paid for 1st time in 3 mos, but I know 2 #Ebola staff got 1‚Ä¶",13.078227459997468,1.2690706682959996,01/08/2014 02:27 PM
"A company is out of #Ebola-virus stuffed animals after selling \""thousands and thousands\"" of them: http://t.co/bxTXZOWfIh",11.433844585998452,3.4628240981771485,01/09/2014 05:35 AM
CBS\' Logan quarantined after Ebola report   http://t.co/rfjFafENJi  #ebola #laralogan #southafrica,16.037790236799637,1.272969137754541,01/09/2014 02:37 PM
Human testing has sparked an ethical debate over how to study unproven medicines amid the #Ebola outbreak. http://t.co/cnHT5R6zxs,11.909715527375342,3.2255216505244686,01/09/2014 12:08 PM
"\""@UNICEF: One solution. Meet Aminata, who works at a centre producing chlorine in #Guinea http://t.co/woB3VL2zbq #Ebola\"" @Apollos77",13.016069655628744,4.190503303631255,01/09/2014 03:27 PM
#US doctor released after being cleared of #Ebola   #TNN http://t.co/HBJoF7vMb4,14.602820362225367,4.111633351052593,01/10/2014 04:38 AM
.@amapresident has urged Govt to consider deploying AUSMAT teams to join fight against #Ebola in west Africa https://t.co/bUeKP6cEcd #auspol,14.396444948284744,4.8158194144221005,01/09/2014 08:29 PM
RT @GOPTeens: #Teens: Elect a #Republican Senate -- less #American cases of #Ebola.#Coincidence?,15.964229027903666,2.1000673978183353,01/09/2014 07:12 AM
They ask you to wear mask at the hospital if you have been out of the country in the past 21 days or if you have a bad cough. #ebola,12.374243052138947,1.0131412667337762,01/09/2014 12:00 PM
RT @LukeRussert: #USA media needs 2 b more concerned w 22 vets committing suicide a day &amp; vet unemployment rate than #Ebola or #MH370 http:‚Ä¶,13.006396646210213,2.342407184565674,01/09/2014 05:12 AM
RT @LukeRussert: #USA media needs 2 b more concerned w 22 vets committing suicide a day &amp; vet unemployment rate than #Ebola or #MH370 http:‚Ä¶,12.143563546301037,4.772677760670194,01/08/2014 03:23 PM
RT @RT_com: #US nurses strike over insufficient #Ebola protections http://t.co/iCYbZDlQkv http://t.co/CYku6t0gVU,13.782733357881256,0.018789967813982678,01/10/2014 01:33 AM
RT @GOPTeens: #Teens: Elect a #Republican Senate -- less #American cases of #Ebola.#Coincidence?,14.806374973995105,1.070303830310408,01/10/2014 02:38 AM
RT @UNinBrussels: #Ebola: @WHO says experimental vaccine trials in West Africa could begin by January http://t.co/ji5kzOaxr9  #EbolaResponse,15.215410656345956,2.755963980995829,01/10/2014 04:15 AM
RT @blacklooks: A history of medical killers in #Africa #Ebola #HIV #poison #sterilisation http://t.co/5YMrdH0j86 cc @ducorwriter V/ @afriq‚Ä¶,14.39181889356875,2.878640098844272,01/08/2014 05:13 PM
Clinical Care of Two Patients with #Ebola Virus Disease in the United States http://t.co/IBMRuL8C8z,12.22415847951477,2.906759086976094,01/08/2014 06:54 PM
RT @RT_com: #US nurses strike over insufficient #Ebola protections http://t.co/iCYbZDlQkv http://t.co/CYku6t0gVU,11.47538529417647,4.002781685001572,01/09/2014 07:41 AM
"RT @SavetheChildren: #Ebola Crisis at a \""Tipping Point:\"" 2.5 Million Children under 5 Live in Affected Areas http://t.co/6Rgwvi5OJw",16.143471418164143,2.4198461040450927,01/08/2014 06:28 PM
"As #Ebola takes lives in #Liberia, it leaves hunger in its wake: Sogbondo Raylo carries a‚Ä¶ http://t.co/n6TOJ4ebhQ",11.398665475552477,4.311310092224603,01/08/2014 08:27 PM
RT @PHammondMP: Good to meet @presidentkoroma Impressed at his commitment to keep fighting #Ebola http://t.co/XImMIu9Nt4,13.062917928128154,5.3803112701520535,01/10/2014 12:15 AM
"RT @SavetheChildren: #Ebola Crisis at a \""Tipping Point:\"" 2.5 Million Children under 5 Live in Affected Areas http://t.co/6Rgwvi5OJw",13.770870607268357,1.967820436864495,01/09/2014 06:19 PM
"US nurses to protest, strike over #Ebola measures | http://t.co/2mlWbxNTWg",13.728752912232324,1.7681914111833148,01/09/2014 07:01 PM
"RT @jsgaetano: #ImpeachPerry, he won\'t #SealTheBorders. Plus he let #Ebola into the US! @jhoffman2022",14.045872478791779,-0.1251185244499453,01/10/2014 12:57 AM
Caught the feelings. #ebola,15.336994847531328,3.529857436098287,01/10/2014 12:00 AM
"#Ebola U.S. nurses hold strikes, protests over Ebola measures   http://t.co/EuY2hKT9jP http://t.co/tPIdbSdvDN",15.446043732188379,2.0992301691980795,01/09/2014 05:33 PM
I\'m pretty sure it\'s bad when you cough so hard that you can taste blood. #Ebola  ? üò∑,15.192029633015347,1.08491573647322,01/09/2014 08:38 AM
RT @BCNewsWire: #Mali races to contain new #Ebola outbreak as deaths worldwide top 5000 #worldpoli - http://t.co/I64Va8OviA,12.243686975825504,-0.42671916281320277,01/09/2014 06:05 PM
RT @Oritavancin: No evidence the Ebola vaccine causes autism!#autism #aspergers #Psychiatry #healthcare #CDCwhistleblower #ebolahttp://‚Ä¶,16.26370821752976,3.9769194211302334,01/08/2014 03:24 PM
RT @LukeRussert: #USA media needs 2 b more concerned w 22 vets committing suicide a day &amp; vet unemployment rate than #Ebola or #MH370 http:‚Ä¶,15.644762718090677,4.406546160770333,01/08/2014 05:38 PM
"RT @neva9257: It‚Äôs been fun/awful playing at #OutbreakChat, but remember: donate to aid orgs working in #Ebola -affected countries http://t‚Ä¶",12.00766532896066,2.8831540121945336,01/09/2014 02:05 PM
RT @LukeRussert: #USA media needs 2 b more concerned w 22 vets committing suicide a day &amp; vet unemployment rate than #Ebola or #MH370 http:‚Ä¶,11.840258967327314,4.4043743572031575,01/08/2014 03:54 PM
RT @GOPTeens: #Teens: Elect a #Republican Senate -- less #American cases of #Ebola.#Coincidence?,12.415529026944688,-0.4661805461663304,01/09/2014 06:48 PM
Fox News says fighting Ebola is a \'boondoggle\' - http://t.co/VA4yCH5ll9 #ebola,11.711525698210236,4.28350140233012,01/09/2014 10:24 PM
20000 California Nurses Go On Strike - Ebola Fears - http://t.co/t1onpv0RmZ #ebola,15.247148647653644,5.074178062930966,01/09/2014 02:38 PM
RT @Barbi_Twins: Hendry Co defends #monkey breeding lab negligence including #Ebola-Typical&gt;govt protects biz over bodies @JVM @ALDF http:/‚Ä¶,11.714330271924856,1.4001661502228648,01/09/2014 06:43 PM
RT @blacklooks: A history of medical killers in #Africa #Ebola #HIV #poison #sterilisation http://t.co/5YMrdH0j86 cc @ducorwriter V/ @afriq‚Ä¶,14.701615393845369,2.373029655337065,01/09/2014 01:22 AM
Pregnant women in #Liberia at inc. risk of complications and death due to fear of #ebola http://t.co/rhkvzqUUiy,14.831108873691559,4.666909860750285,01/08/2014 03:44 PM
"RT @Laurie_Garrett: Today @UNDP took over payroll at #Liberia MinHlth. Some got paid for 1st time in 3 mos, but I know 2 #Ebola staff got 1‚Ä¶",12.319173376053756,0.20581492278001168,01/09/2014 02:35 AM
RT @GSK: ‚ÄòThe fight against #Ebola needs big pharma on board‚Äô @wellcometrust article in @FT: http://t.co/Nt9n5qB9ZU (subscription req.),15.979155594032171,3.32697948961596,01/08/2014 07:41 PM
We\'re so bad at assessing real risküòå. #Ebola http://t.co/4smn08BTYw @hp_ems,12.864309361094218,0.9176357513999398,01/09/2014 09:38 PM
"RT @SavetheChildren: #Ebola Crisis at a \""Tipping Point:\"" 2.5 Million Children under 5 Live in Affected Areas http://t.co/6Rgwvi5OJw",11.682829777772731,3.7639799368049696,01/09/2014 11:53 PM
RT @GOPTeens: #Teens: Elect a #Republican Senate -- less #American cases of #Ebola.#Coincidence?,11.385012958981118,1.2909071974787418,01/09/2014 02:54 PM
@bfrist Fmr. Senator Bill Frist makes the case for us to stay on the offensive re: #Ebola #EbolaCrisis #publichealth http://t.co/YSrv0yFU1T,16.242818898350194,5.253902870246821,01/09/2014 09:12 AM
brother @RobertBornAgain #Ebola is a lie as well. it‚Äôs all a part of bringing #agenda21 to the forefront. the RFID chips will be here TBC,12.86720746173512,1.5019630270279274,01/08/2014 03:37 PM
Does an #Ebola Outbreak Trump the #HIPAA #Privacy Rule? http://t.co/sRPjLFhusK,10.55963596965223,3.07242093161424,01/08/2014 03:31 PM
RT @whittington_amy: #climatechange and #Ebola to be discussed but only part of agenda @JoeHockey @TheSourceNews1,14.346241706048286,0.8857109080826913,01/09/2014 07:48 AM
RT @wessmith123: The U.S. is now #Ebola Free! Fox must be FREAKING OUT! #UniteBlue #TNTweeters #LibCrib http://t.co/GmjcPnGgid http://t.co/‚Ä¶,16.08319494570072,5.415160549161218,01/10/2014 04:06 AM
"RT @neva9257: It‚Äôs been fun/awful playing at #OutbreakChat, but remember: donate to aid orgs working in #Ebola -affected countries http://t‚Ä¶",10.754748906130208,1.6905248232136492,01/09/2014 10:03 AM
#climatechange and #Ebola to be discussed but only part of agenda @JoeHockey @TheSourceNews1,14.542248645054267,1.7259062721034768,01/10/2014 12:44 AM
RT @McCarthyism101: #Ebola is our beautiful creation.A Frankenstein we deliberately let loose from our laboratories. Our #Agenda21! Now suc‚Ä¶,15.27760843842528,0.7683496445067606,01/08/2014 11:06 PM
@dancapper it‚Äôs more a comment on the fascination with experimental treatments in the #Ebola outbreak. @WhySharksMatter,15.435576333675078,5.399780975560257,01/09/2014 10:46 PM
How #Africa And Africans Are Responding To The #Ebola Crisis #liberia #epidemiology http://t.co/ioKVeFjTYr,12.288609273056098,0.19701641804037262,01/09/2014 02:40 AM
RT @GlobalGenes: BREAKING NEWS! Twins with rare genetic disorder could hold clue to cure for #Ebola http://t.co/gtxRjG9Ol9 @HempelFamily #N‚Ä¶,13.938114314549612,-0.49717637944157556,01/09/2014 09:47 PM
"RT @JohnFarrier: Wow... For every $1 you donate to fight #Ebola, @Google will donate $2: https://t.co/eo4K9xRl5K",11.370920401208458,3.7413883624964948,01/09/2014 11:47 AM
"RT @neva9257: It‚Äôs been fun/awful playing at #OutbreakChat, but remember: donate to aid orgs working in #Ebola -affected countries http://t‚Ä¶",14.783155177660872,0.023409717107313988,01/09/2014 10:20 AM
RT @wef: What #economics can teach us about the spread of #Ebola http://t.co/OukaYQJg2R http://t.co/VQ6VQZGQyU,11.81906458028598,4.592901139587661,01/08/2014 11:40 PM
@rotary spoke to The Rotary Club of Atlantic City about #Ebola http://t.co/Zj9JiAZ17h,11.27475213986761,3.285284458222799,01/09/2014 08:27 PM
RT @archithFox46: Find out what\'s being done to honor the 1st US patient who died from the #Ebola virus at 10 #charlotte #clt @myfoxdfw htt‚Ä¶,10.545699205385812,2.903185440108913,01/08/2014 09:25 PM
RT @archithFox46: Find out what\'s being done to honor the 1st US patient who died from the #Ebola virus at 10 #charlotte #clt @myfoxdfw htt‚Ä¶,14.822630330082166,2.324692950646792,01/09/2014 05:39 PM
Online Homeland security: #Guinea - #Ebola #Virus #Disease http://t.co/1vbSeJfFyM,15.583083919742496,0.6563656870417427,01/09/2014 05:58 PM
"RT jsgaetano: #ImpeachPerry, he won\'t #SealTheBorders. Plus he let #Ebola into the US! jhoffman2022",15.753051400888832,1.342601431529191,01/09/2014 08:53 AM
"RT @ArdenBarry: Perspective: #Ebola is rampant in west Africa while American scientists are busy discovering the \""stupidity\"" virus: http://‚Ä¶",11.435434547967192,0.10367007384950666,01/09/2014 03:54 AM
RT BreLink_12: RT _autumnbree: The real suspect in question is Cady Heron #MeanGirls #Ebola #TwitterJoke https://t.co/Ta7OM7UW0A,12.212012596784849,4.191119384904902,01/09/2014 12:25 AM
I\'m Tumblin\' to: http://t.co/BzMWRvGVu4#Ebola http://t.co/7pmP7LapI9,16.391600128205713,0.5630161954694419,01/08/2014 10:21 PM
RT @RT_com: #US nurses strike over insufficient #Ebola protections http://t.co/iCYbZDlQkv http://t.co/CYku6t0gVU,14.994212308959252,5.287837482621803,01/08/2014 01:49 PM
2014 #Ebola Outbreak in West #Africa @CDCgov http://t.co/3IAHxPjTC1 | Condolences to all those who lost loved ones http://t.co/DcbyKqaDzm,15.759877894214629,3.1001010534925637,01/08/2014 05:52 PM
http://t.co/CVJbFdXUNu Planning a vacay? The UN highly Recommends these Premier #Ebola Destinations #Other Pandemic News,11.074677674665162,5.4332316196536175,01/08/2014 07:30 PM
"RT @neva9257: It‚Äôs been fun/awful playing at #OutbreakChat, but remember: donate to aid orgs working in #Ebola -affected countries http://t‚Ä¶",15.269130213058668,1.2805273655416594,01/09/2014 02:30 PM
@NealHandel @GRMediaFirm @radar_online Time to stop gawking at the Kardashians and get to work on #Ebola and a #cleansexlife.,10.714569497635896,3.4384976291034137,01/09/2014 01:57 PM
"RT neva9257: It‚Äôs been fun/awful playing at #OutbreakChat, but remember: donate to aid orgs working in #Ebola -a... http://t.co/zGetRYEZhv",11.251886373376074,2.073207506582181,01/09/2014 08:46 PM
"RT @healthmap: ICYMI! Highlights of most recent @WHO #Ebola SitRep live at: http://t.co/0BC5W86Fv3 - 4 deaths in #Mali, 421 new cases in #S‚Ä¶",12.925186291354724,1.8269643720884008,01/09/2014 12:44 PM
@CBS\' #LaraLogan Self-Quarantines Following Trip To #Liberia - http://t.co/O0qTg2s3ut #Ebola,11.693467898011937,0.19237086682187865,01/08/2014 10:15 PM
"RT @picardonhealth: First Outbreak Quashed, #Ebola Reappears in #Mali  http://t.co/PfzAmGS78Z via @nytimes",13.935640714528773,4.209714225421022,01/08/2014 11:31 PM
Les Roberts ‚Äì ‚ÄúDay 39: The plural of anecdote is not data‚Äù #Ebola http://t.co/BDLWSDxPQ9 http://t.co/P4qlBYj8bc,13.1172465569165,3.2011409190123645,01/08/2014 06:35 PM
"#ImpeachPerry, he won\'t #SealTheBorders. Plus he let #Ebola into the US! @jhoffman2022",15.932946172473422,2.7096983551608895,01/09/2014 03:55 AM
RT @_autumnbree: The real suspect in question is Cady Heron #MeanGirls #Ebola #TwitterJoke https://t.co/KYreJqQAuj,11.06366222397865,1.8475442137443951,01/08/2014 04:02 PM
"It‚Äôs been fun/awful playing at #OutbreakChat, but remember: donate to aid orgs working in #Ebola -affected countries http://t.co/MpKWDaqegz",12.529614462616768,0.9468134457448942,01/08/2014 05:17 PM
"RT @tarahaelle: And remember, IRL the actual #Ebola outbreak is no joke. Three more cases in Mali. http://t.co/9BFHt5mV2X #OutbreakChat",13.220679816662035,5.194740678318346,01/08/2014 02:39 PM
RT @WHO: #Mali‚Äôs Ministry of Health has confirmed the country‚Äôs second #Ebola fatal case in a nurse who worked in Bamako http://t.co/oTsqKS‚Ä¶,15.756534088166548,4.684398046033792,01/09/2014 12:20 AM
"RT @ONECampaign: NEWS: More than 14,000 #Ebola cases (including 4 now confirmed in Mali) &amp; more than 5,100 deaths http://t.co/WWxHYheIOS vi‚Ä¶",13.566717956250553,1.0793065924412397,01/08/2014 06:39 PM
I\'m Tumblin\' to: http://t.co/BzMWRvGVu4#ebola,14.040942204178666,1.5718597462647894,01/08/2014 04:17 PM
DRC: #Ebola Virus Disease DREF Operation n¬∞ MDRCD015 Operations update n¬∞ 1 http://t.co/tWW7aPnJXp via @reliefweb #DRC,12.255139772783291,1.7626083552512823,01/09/2014 08:23 AM
RT @buissonnierem: ‚Äú@MSF: Any questions about #Ebola? Sign up for #MSF\'s new e-learning platform about the virus http://t.co/WD2kxGESBA htt‚Ä¶,13.61252262545242,1.1384117255809139,01/08/2014 11:05 PM
"RT @theIRC: From the front lines of the #Ebola crisis, a photo essay by @Peter_Biro on @dailybeast: http://t.co/JIpvAMs6Qb http://t.co/4GtE‚Ä¶",15.55324793295704,0.9513295034216487,01/08/2014 03:14 PM
#HHS #Secretary #asks #agency #to #welcome #back #colleagues #returning #from #Ebola ‚Ä¶: Health and Human Services‚Ä¶ http://t.co/KveAB5c5u0,11.730682706811908,2.40661195976415,01/09/2014 10:08 AM
"So it\'s official, right? #Elections cure #Ebola.",13.916520677610174,-0.09049887547195468,01/08/2014 10:10 PM
"RT @tarahaelle: And remember, IRL the actual #Ebola outbreak is no joke. Three more cases in Mali. http://t.co/9BFHt5mV2X #OutbreakChat",11.786985254030505,3.880513047603581,01/09/2014 09:15 AM
"RT @PeterSinger: My latest Project Syndicate column is on #Ebola, our research priorities &amp; the #ethics of developing a new treatment http:‚Ä¶",13.532425393692844,1.5429844328519184,01/09/2014 11:38 PM
Online Homeland security: #Guinea - #Ebola #Virus #Disease http://t.co/nD7xXEP1wO,12.281420937357547,-0.11166130252021489,01/09/2014 09:10 AM
"RT @tarahaelle: And remember, IRL the actual #Ebola outbreak is no joke. Three more cases in Mali. http://t.co/9BFHt5mV2X #OutbreakChat",11.727143302172468,-0.51861041491606,01/09/2014 02:43 AM
The real suspect in question is Cady Heron #MeanGirls #Ebola #TwitterJoke https://t.co/KYreJqQAuj,11.693737954039836,0.4832454001230295,01/09/2014 04:40 AM
RT @LukeRussert: #USA media needs 2 b more concerned w 22 vets committing suicide a day &amp; vet unemployment rate than #Ebola or #MH370 http:‚Ä¶,12.472782278298405,3.6658822690978647,01/08/2014 06:14 PM
RT @LukeRussert: #USA media needs 2 b more concerned w 22 vets committing suicide a day &amp; vet unemployment rate than #Ebola or #MH370 http:‚Ä¶,15.695373899813667,-0.2955094736444188,01/08/2014 05:34 PM
"And remember, IRL the actual #Ebola outbreak is no joke. Three more cases in Mali. http://t.co/9BFHt5mV2X #OutbreakChat",12.009589213275847,0.8002186645612788,01/09/2014 09:10 PM
the #Ebola #outbreak only shows how poor the #healthcare system is in #Guinea . Now there\'s some #motivation for a #publichealth #degree,16.167133061686492,3.555650406685273,01/09/2014 09:56 PM
RT @theOFDA: Big issue in #Ebola response is personal protective equip. @USAID launched grand challenge to make PPE safer http://t.co/Q5P4A‚Ä¶,11.709220375938434,4.234481408585129,01/09/2014 08:30 PM
Find out what\'s being done to honor the 1st US patient (Thomas Eric Duncan) who died from the #Ebola virus in 10 mins #charlotte #clt @FOX4,15.526131527853613,3.669989616120766,01/09/2014 01:56 AM
@MSNBC\'s Chris Hayes Rips Media ( @FoxNews @CNN)  For Fearmongering Concerning #Ebola - http://t.co/DWvFyDHkFu #UniteBlue @UniteBlue,16.23822837127288,2.346891385678048,01/08/2014 01:36 PM
"Clinician @DanKelly_MD returning from Sierra Leone \""more hopeful than ever\"" that #Ebola will be eradicated http://t.co/LPxCjPJs0G via @UCSF",11.07515945624915,0.04245265670731957,01/10/2014 01:51 AM
RT @ONEgirlswomen: MUST read: One in 7 women risk dying in childbirth in #Ebola-hit countries http://t.co/i7fSNOFgzG via @ReutersAfrica,16.43124920362557,4.242802124223128,01/09/2014 06:13 PM
"RT @picardonhealth: First Outbreak Quashed, #Ebola Reappears in #Mali  http://t.co/PfzAmGS78Z via @nytimes",15.306150405739903,0.04387304571840156,01/10/2014 04:30 AM
RT @YaThinkN: Thank you @antloewenstein about bloody time #Ebola profiteering at expense of qualified NGO was pointed out :( http://t.co/gp‚Ä¶,12.357638636031583,2.9109065646923846,01/10/2014 02:56 AM
"\""The End of #Racism\"" http://t.co/50VHEHlS7o  #islam #Africa #Ebola #uk #USA #Christ #Nigeria #bible #jesus",11.469516244958179,1.6525819507425004,01/09/2014 03:56 AM
RT @GOPTeens: #Teens: Elect a #Republican Senate -- less #American cases of #Ebola.#Coincidence?,11.596705999420132,4.65578546224128,01/09/2014 12:40 AM
RT @LukeRussert: #USA media needs 2 b more concerned w 22 vets committing suicide a day &amp; vet unemployment rate than #Ebola or #MH370 http:‚Ä¶,13.76395329877173,1.5971862340206835,01/09/2014 06:06 AM
RT @SusanWojcicki: Google matches $2 for every $1 donated in the fight against Ebola. Join the fight! #Ebola http://t.co/B8DLzqFLv4),11.165090838259047,0.7923210385811743,01/09/2014 04:19 AM
Exploring This Season‚Äôs Continuity Experiment On #SouthPark http://t.co/mWgj3MSaaw via @UPROXX #Redskins #Ebola #Lorde #Freemium #TVbiz,14.380480723021742,2.346637565147777,01/09/2014 01:45 AM
Ask #G20 to stop companies #taxdodging NOW so poor countries can invest in healthcare! #TaxPower http://t.co/CpbX5V6Bzx #Ebola,13.486990975369615,3.395418052420313,01/09/2014 09:30 AM
Top #US Officials ask #Congress 4 help 2 the tune of 6.2B for the fight against #Ebola http://t.co/a7swyPA3xk via @YahooNews,12.486860203861307,1.7527754056419118,01/10/2014 02:45 AM
RT @RT_com: #US nurses strike over insufficient #Ebola protections http://t.co/iCYbZDlQkv http://t.co/CYku6t0gVU,10.625059474644086,0.41918534999958945,01/09/2014 01:07 AM
"RT @nancylindborg: In fight against #Ebola, we MUST stay flexible &amp; agile - As @JeremyKonyndyk says  - we can\'t take foot off gas pedal. ht‚Ä¶",11.577989378003819,3.4908606857744635,01/08/2014 10:16 PM
RT @LukeRussert: #USA media needs 2 b more concerned w 22 vets committing suicide a day &amp; vet unemployment rate than #Ebola or #MH370 http:‚Ä¶,14.002392202511775,0.983856172431792,01/09/2014 02:54 AM
RT @CDCgov: #CDCintheField from Jana: Presenting outline of social mobilization activities to increase public awareness on #Ebola http://t.‚Ä¶,14.56119921660381,-0.42830661947455173,01/10/2014 12:45 AM
RT @CDCgov: Unsafe burial practices are a major cause of new #Ebola cases in Sierra Leone. This week\'s #EbolaBigIdea is SAFE BURIALS SAVE L‚Ä¶,15.249913469168213,2.334125647566051,01/10/2014 03:08 AM
".....then, the #KimKardashian photo shoot was released and everyone forgot that they were terrified of #Ebola.",12.003321744254007,0.6666658259708484,01/09/2014 03:32 AM
"RT @picardonhealth: First Outbreak Quashed, #Ebola Reappears in #Mali  http://t.co/PfzAmGS78Z via @nytimes",13.990366738443742,2.605569282487356,01/09/2014 01:22 PM
"RT @tweetybird2009: @AlverezAmanda I\'m sure #Obama will try to get some of that 6.2 #billion to his country, just to keep #Ebola out!",15.632335143921077,2.6145839398728263,01/09/2014 06:12 PM
RT @SavetheChildren: Your #Ebola donation will help now more than ever. @Google will give $2 for each $1 you donate http://t.co/D9lTC93NIy ‚Ä¶,14.107316321311862,0.9973337477069075,01/10/2014 02:41 AM
RT @CDCgov: Sierra Leone is fighting #Ebola and educating its residents one big idea at a time. This week\'s #EbolaBigIdea is SAFE BURIALS S‚Ä¶,11.045454637403571,3.0133552781807045,01/09/2014 06:31 PM
Find out what\'s being done to honor the 1st US patient who died from the #Ebola virus at 10 #charlotte #clt @myfoxdfw http://t.co/yXr7fxK2rL,12.290828130084991,4.495451280017128,01/10/2014 12:45 AM
Our #hospital is safer since #Ebola #bonsecours #stfrancis,10.771824485339856,1.3133649442061472,01/09/2014 09:49 AM
"#Ebola death toll tops 5,000; steep rise in Sierra Leone cases: WHO http://t.co/PgOHIkxHOr via @feedly",11.19244917855538,2.834396058169741,01/08/2014 07:59 PM
Interactive #Ebola outbreak timeline http://t.co/TkAhI4oeu6,14.240652885896132,2.921544276731008,01/09/2014 03:54 PM
ChuckCJohnson joins me #GOTNEWS #EBOLA #FERGUSON #UPDATES #TCOT LISTEN-&gt; http://t.co/AvEWODyU4R,15.741229081876945,0.42756181947463867,01/09/2014 06:26 PM
"Fun Fact: Bea told me she prefers hanging out with black boys instead of me, her Bestfriend. #ebola #wut",14.558529573451038,3.7543618070264637,01/10/2014 12:57 AM
RT @YaThinkN: Thank you @antloewenstein about bloody time #Ebola profiteering at expense of qualified NGO was pointed out :( http://t.co/gp‚Ä¶,11.146492763135878,2.221682996912385,01/08/2014 06:00 PM
RT @LukeRussert: #USA media needs 2 b more concerned w 22 vets committing suicide a day &amp; vet unemployment rate than #Ebola or #MH370 http:‚Ä¶,15.348503825958112,2.78821410560986,01/09/2014 05:12 PM
RT @DavidFisman: @AMREFCanada thanks for an amazing and stimulating evening.  Great discussion on #ebola in context.,10.826045018598386,3.4825889210751013,01/10/2014 03:46 AM
RT @ONECampaign: SHOCKING: One in 7 women risk dying in #childbirth in #Ebola-hit countries  http://t.co/nf2gA7CQxC via @Reuters http://t.c‚Ä¶,12.775781663767592,2.5497443739999786,01/08/2014 02:49 PM
RT @EbolaOutbreakUS: RT Minnesota loses track of people being Monitored for Ebola in #Minnesota ! http://t.co/64BJkQKcRG #Ebola Gander Moun‚Ä¶,14.652406479499497,3.532963216028034,01/09/2014 03:26 AM
‚Äú@YouAintBaut_It: @kyledrane  üòÇüòÇüòÇüòÇüòÇüòÇüòÇ‚Äù now get out my mentions and get to the doctor. #ebola,15.027297895352605,1.3561694741591506,01/09/2014 04:32 PM
"First Outbreak Quashed, #Ebola Reappears in #Mali  http://t.co/PfzAmGS78Z via @nytimes",11.924108212987939,3.7031468308099456,01/10/2014 03:51 AM
"RT @Scrivener3: #Ebola Outbreak Deaths Pass 5,000TOTAL DEATHS = 5,160INFECTED = &gt; 14,000http://t.co/TDsJCuMtsG http://t.co/Z4hgwzgnBl",14.433774975070504,-0.3266618557642862,01/09/2014 11:11 PM
RT @YaThinkN: Thank you @antloewenstein about bloody time #Ebola profiteering at expense of qualified NGO was pointed out :( http://t.co/gp‚Ä¶,16.459015146909255,-0.15066390477026648,01/09/2014 09:22 PM
Review Into ¬£200K Academy Heads\' Salaries http://t.co/eHZ9CqnZil #skynews #ebola #iphonewallpaper #hdwallpaper,11.305293668818877,0.963681875465914,01/09/2014 05:30 PM
RT @GOPTeens: #Teens: Elect a #Republican Senate -- less #American cases of #Ebola.#Coincidence?,14.327444796296607,4.749824284455117,01/08/2014 03:25 PM
"RT @KentPage: Sierra Leone: #Ebola social mob work coordinated by @UNICEFSL has put out 200K posters, 40K factsheets &amp; 1.5M SMS http://t.co‚Ä¶",15.668312275350667,1.3526289110785985,01/10/2014 03:58 AM
"@andrewwlittle: more important issues facing humanity? #Ebola #SyriaCrisis. If we can\'t solve those, be thankful we can do #CometLanding",13.844416929307648,3.149561843037903,01/08/2014 04:17 PM
unbelievable RT @steve1johnson: This is staggering...Eyewitness to Hell: Life in #Ebola-Ravaged Liberia http://t.co/qvLGRQZIH6,14.980306055345684,3.7882722403435043,01/09/2014 05:46 AM
"RT @loudobbsnews: The #Obama WH needs $6.2B to fight #Ebola, but the @UN is only asking for $1B.  Sen @JohnBoozman explains #LouDobbsTonight",12.16136892160571,0.8346145535609761,01/09/2014 10:23 AM
RT @PlexusVentures: #Fujifilm says its #flu drug is an #Ebola solution in waiting - @FierceBiotech: http://t.co/Hg81TiIGrc #biotech,14.703413290151495,1.752709836077834,01/08/2014 05:46 PM
@AHAhospitals urges Congress to dedicate funding for #hospital #Ebola preparedness http://t.co/y5O4VxKcwj,14.408484033081178,4.740180848704802,01/08/2014 04:45 PM
"RT @WhySharksMatter: #ProTip Parents, believe your children when they talk about imaginary friends, they may be #ebola carriers. #OutbreakC‚Ä¶",12.726536287093843,0.607965699268854,01/09/2014 03:19 AM
Online Homeland security: #Sierra #Leone - #Ebola Virus Disease http://t.co/aqECv6lMu8,15.960927421215395,5.286470650975719,01/10/2014 01:05 AM
RT @girlslovecj_: Hot Nigga RemixüòÇ@Mrsamiamtv #shmoneyremix  #AfricansBeLike #Ebola https://t.co/AKJt61yLTl,11.707536778860572,3.428073083676642,01/10/2014 02:04 AM
RT @blacklooks: A history of medical killers in #Africa #Ebola #HIV #poison #sterilisation http://t.co/5YMrdH0j86 cc @ducorwriter V/ @afriq‚Ä¶,12.685551326881928,1.8149171601394345,01/08/2014 09:25 PM
"RT @WhySharksMatter: #ProTip Parents, believe your children when they talk about imaginary friends, they may be #ebola carriers. #OutbreakC‚Ä¶",14.896936170700375,0.31378749267640327,01/09/2014 05:19 AM
Be careful or you may catch \'Fearbola\' http://t.co/QMfz3HvUyg via @HuffPostCaLiv #cdnpoli #cdnhealth #ebola #publichealth #scicomms,15.696472943720009,2.9536530015085756,01/09/2014 09:51 AM
Ebola Outbreaks Hot SpotsüíÄhttp://t.co/lwD18ZJko1üíÄ #Ebola #Africa #RedCross #WHO #UN #USA #UK#Canada #Australia #RT,12.444542209011752,-0.45341569134102855,01/09/2014 09:16 AM
RT @YannMSF: #Ebola: #MSF Online Briefing Now Available to the Public  http://t.co/WqSnY8W8hL http://t.co/Qo9BVL3FrC,12.507934835163608,0.39189718677909724,01/09/2014 04:16 AM
RT @ONECampaign: SHOCKING: One in 7 women risk dying in #childbirth in #Ebola-hit countries  http://t.co/nf2gA7CQxC via @Reuters http://t.c‚Ä¶,12.182092563076404,-0.358135926096101,01/09/2014 12:33 AM
#Ebola victim Eric Duncan‚Äôs family has settled $$$ with Dallas hospital.TX has a cap on Frivolous lawsuits anyway.  http://t.co/NNcJ1yRC2M,12.866616012162002,1.1955092293373197,01/08/2014 08:21 PM
RT @mercycorps: Skyrocketing food costs &amp; a decrease in income are part of the economic toll caused by #Ebola. Read more: http://t.co/Zv14Q‚Ä¶,16.16238732636976,3.560782514152094,01/08/2014 09:09 PM
"RT @SavetheChildren: #Ebola Crisis at a \""Tipping Point:\"" 2.5 Million Children under 5 Live in Affected Areas http://t.co/6Rgwvi5OJw",10.583325473824349,4.441484715574223,01/09/2014 02:27 PM
"RT @RT_com: #Ebola death toll surpasses 5,000 - WHO http://t.co/vdsIIjJoQE http://t.co/NvufkGGuCm",11.217723333234343,4.027813618443037,01/09/2014 01:52 AM
RT @YaThinkN: Thank you @antloewenstein about bloody time #Ebola profiteering at expense of qualified NGO was pointed out :( http://t.co/gp‚Ä¶,12.067159937384156,3.5793043297355736,01/08/2014 08:56 PM
RT @RT_com: #US nurses strike over insufficient #Ebola protections http://t.co/iCYbZDlQkv http://t.co/CYku6t0gVU,12.903619834657636,2.362061801578955,01/08/2014 05:09 PM
Online Homeland security: #Sierra #Leone - #Ebola Virus Disease http://t.co/k6cGqoKXcY,14.468628644389383,2.2849300927293807,01/09/2014 05:50 PM
RT @CDCgov: #CDCintheField from Jana: Presenting outline of social mobilization activities to increase public awareness on #Ebola http://t.‚Ä¶,13.448772127792619,3.237997456641437,01/08/2014 08:10 PM
RT @PolitiFact: Release of NY doctor means there are no known cases of #Ebola in the U.S. Here\'s our most recent checks on the virus. http:‚Ä¶,12.165499077361257,5.457851313766311,01/10/2014 03:35 AM
"RT @WhySharksMatter: #ProTip Parents, believe your children when they talk about imaginary friends, they may be #ebola carriers. #OutbreakC‚Ä¶",13.231641857043568,0.735270359644544,01/09/2014 01:28 AM
#Ebola death toll passes 5000 - Belfast Telegraph http://t.co/MqicspyMnd,14.337710305341052,1.2463886105218884,01/09/2014 05:02 PM
RT @SusanWojcicki: Google matches $2 for every $1 donated in the fight against Ebola. Join the fight! #Ebola http://t.co/B8DLzqFLv4),11.972964967463996,0.7523774282902902,01/10/2014 12:38 AM
RT @EbolaPlan: #Ebola Ebola: for-profit disaster capitalists are already out looking to make money f  http://t.co/pJ6a8MhvlO http://t.co/tl‚Ä¶,16.400970314647978,3.782013216842021,01/09/2014 02:23 AM
RT @EI_EcoNewsfeed: .@EcoInternet Mali reports 2 new #Ebola deaths in capital: Canadian Press http://t.co/Zf5xs6ihnK *MORE @EI_Ebola http:/‚Ä¶,15.592024167018035,2.2427141254816036,01/08/2014 07:37 PM
"RT @MelissaTweets: If #Ebola and #Gruber tweet on Twitter and media ignores it, do they exist?",14.010979464534842,0.11042836986800442,01/09/2014 01:04 AM
RT @YaThinkN: Thank you @antloewenstein about bloody time #Ebola profiteering at expense of qualified NGO was pointed out :( http://t.co/gp‚Ä¶,13.52016463811274,3.089689884338491,01/10/2014 02:18 AM
RT Minnesota loses track of people being Monitored for Ebola in #Minnesota ! http://t.co/64BJkQKcRG #Ebola Gander Mountain #mnwild #NYC,15.028232153352727,-0.1394557044266196,01/08/2014 05:44 PM
RT @advtecllc: @GulpClearWater  #technology to #STOP #EBOLA #savetheworldswater and our #Earth is here! http://t.co/bbh0Nbsgp1 WHO CARES? T‚Ä¶,15.719026208788994,4.6223667450322745,01/09/2014 11:13 AM
"RT @WhySharksMatter: #ProTip Parents, believe your children when they talk about imaginary friends, they may be #ebola carriers. #OutbreakC‚Ä¶",10.698127002760463,0.29655883564437513,01/09/2014 09:50 PM
"RT @SavetheChildren: #Ebola Crisis at a \""Tipping Point:\"" 2.5 Million Children under 5 Live in Affected Areas http://t.co/6Rgwvi5OJw",13.453533099639145,0.9323979838390302,01/08/2014 01:59 PM
#OtherExcusesForDemLosses Libs were afaid #Ebola was in the voting booths,11.39509409192796,3.210192413082395,01/09/2014 08:29 PM
RT @gemhq: @BTCAgainstEbola uses #Bitcoin donations hub to reduce #remittance fees &amp; better fund the global fight against #Ebola http://t.c‚Ä¶,10.664889833887734,0.7771723758644684,01/10/2014 01:18 AM
RT @YaThinkN: Thank you @antloewenstein about bloody time #Ebola profiteering at expense of qualified NGO was pointed out :( http://t.co/gp‚Ä¶,12.459028725559069,3.3984845527897996,01/09/2014 07:55 PM
RT @CDCgov: Unsafe burial practices are a major cause of new #Ebola cases in Sierra Leone. This week\'s #EbolaBigIdea is SAFE BURIALS SAVE L‚Ä¶,10.977776620809658,2.836198487116119,01/09/2014 05:20 PM
"RT @duracelqc: PBO get elected, spike in gun sales, why are\""Whites\""men afraid? Healthcare heroes treating #Ebola patient, detained. Now #Fe‚Ä¶",13.091721999491222,4.242573483667424,01/10/2014 03:43 AM
"RT @DrFriedenCDC: Emerging disease threats, incl #Ebola, remind us of the impt of detecting, controlling &amp; reporting diseases early &amp; effic‚Ä¶",14.75564557207996,2.375972888704921,01/09/2014 03:16 AM
"RT @RT_com: #Ebola death toll surpasses 5,000 - WHO http://t.co/vdsIIjJoQE http://t.co/NvufkGGuCm",16.012376132442206,5.324620512992134,01/10/2014 04:01 AM
RT @Dr_Ran: #Ebola #NPC1 RT @physorg_com: Researchers find \'key\' used by ebola virus to unlock cells and spread deadly infection http://t.c‚Ä¶,11.590206380635404,5.321155715249023,01/09/2014 03:31 PM
RT @JermaineWatkins: This: See... I knew #Ebola was a bigger worldwide threat than they admitted at jump. http://t.co/rtKgzXzwjk,12.386931428110742,1.9158936144055834,01/09/2014 07:29 PM
@NicoleCOP thought you might be interested in new data on private giving to #Ebola v. private giving for other crises http://t.co/adwvaZWGXX,14.69076453936234,5.112868836681835,01/08/2014 11:50 PM
"RT @ONECampaign: NEWS: More than 14,000 #Ebola cases (including 4 now confirmed in Mali) &amp; more than 5,100 deaths http://t.co/WWxHYheIOS vi‚Ä¶",14.537388165719697,5.100695959733358,01/09/2014 09:06 PM
"@ReIntonation also, Facebook is asking me for donations for #Ebola while it is clearly a #falseflag. You think I\'m dum, @facebook?",15.69763114577765,1.4133562729154134,01/09/2014 03:38 PM
"RT @DrFriedenCDC: Sen. Bill Frist, MD: ‚ÄúNo time for complacency‚Äù in must-read new op-ed on #Ebola response: http://t.co/mp6iNzT9LD @FoxNews",13.41370799408111,0.9112672067306054,01/09/2014 08:46 AM
"RT @MelissaTweets: If #Ebola and #Gruber tweet on Twitter and media ignores it, do they exist?",13.865953693175364,3.667042416263997,01/10/2014 01:49 AM
#Ebola Ebola: for-profit disaster capitalists are already out looking to make money f  http://t.co/pJ6a8MhvlO http://t.co/tlKkcTHqN6,14.459465171641831,4.847917885535669,01/09/2014 03:32 AM
RT @Reslizumab: No evidence that the Ebola vaccine causes autism!üë™üë™üë™üë™#autism #aspergers #healthcare #CDCwhistleblower #Ebolaüë™üë™üë™üë™http://‚Ä¶,12.459364865274573,3.9418188726574206,01/08/2014 07:50 PM
RT @CDCgov: Sierra Leone is fighting #Ebola and educating its residents one big idea at a time. This week\'s #EbolaBigIdea is SAFE BURIALS S‚Ä¶,12.762552281378424,-0.4302769177336794,01/10/2014 01:19 AM
RT @MoNscience Cld u walkthru #Ebola ward w/o catchng virus? video game could teach u how.http://t.co/uwluXlv8zr @nprGlobalHealth @shiftlabs,15.64849531009971,5.206070940574279,01/09/2014 06:17 AM
RT @MoNscience Cld u walkthru #Ebola ward w/o catchng virus? video game could teach u how.http://t.co/DJNV8crBKv @nprGlobalHealth @shiftlabs,15.387698390974496,1.5426797654614197,01/09/2014 03:15 AM
A history of medical killers in #Africa #Ebola #HIV #poison #sterilisation http://t.co/5YMrdH0j86 cc @ducorwriter V/ @afriquiana86,13.073687586396344,5.085659619086395,01/09/2014 10:42 AM
"#ProTip Parents, believe your children when they talk about imaginary friends, they may be #ebola carriers. #OutbreakChat",14.610725552415577,2.2320906072513576,01/09/2014 10:03 PM
"#Ebola Fears, Start Of #Flu Season Spur Jump In Sales For Clorox Disinfectant Wipes http://t.co/ZShy3KwXgE #data #cbssf #virus #health",14.37569440239808,3.7697863617044254,01/09/2014 08:14 AM
RT @JermaineWatkins: This: See... I knew #Ebola was a bigger worldwide threat than they admitted at jump. http://t.co/rtKgzXzwjk,11.479016268609422,5.373588567763016,01/08/2014 03:04 PM
"RT @archietse: After weeks of fewer #Ebola cases in Liberia, @WHO says it appears ‚Äútrend is real‚Äù http://t.co/cHEArMXp33 http://t.co/RRjtnf‚Ä¶",13.105001344233338,0.12461058737328345,01/09/2014 09:01 AM
"Fake \""pandemics\"" are another game of mind control!http://t.co/nN0IdWpmIn #news #fraud #lies #TGDN #pjnet #tcot #ccot #waar #ebola",12.93405301002567,0.10105588645709318,01/09/2014 01:01 PM
I don\'t understand the fuss over the #CometLanding. Surely there are infinitely more important issues facing humanity. #Ebola #SyriaCrisis,14.924438417286161,0.9627606550085668,01/09/2014 10:45 PM
@danieltosh until you cute #ebola I\'m only watching reruns. I\'m that cool.,15.884531783280398,2.069948613224577,01/09/2014 05:06 AM
Online Homeland security: #Senegal - #Ebola Virus Disease http://t.co/1awbnLEr2k,16.445355933134394,0.1591588814030187,01/09/2014 06:40 AM
Watching @SouthPark #RandyIsLorde #alexfromtarget #rachelfromwalgreens #hashtag #Ebola,15.744767196943682,-0.3666286681314235,01/10/2014 12:41 AM
"RT @AllergyKidsDoc: Actual discussion:Parent \""I want #Ebola vaccine for my child\""Doc \""There isn\'t one, but we have #flushot\""Parent \""We d‚Ä¶",11.275923785237616,3.942510250559078,01/09/2014 07:19 AM
@AMREFCanada thanks for an amazing and stimulating evening.  Great discussion on #ebola in context.,15.965094879153046,1.3193180729716716,01/09/2014 03:32 PM
"#Ebola Outbreak Deaths Pass 5,000TOTAL DEATHS = 5,160INFECTED = &gt; 14,000http://t.co/TDsJCuMtsG http://t.co/Z4hgwzgnBl",10.740605148543876,1.6236340576427049,01/09/2014 12:03 PM
This: See... I knew #Ebola was a bigger worldwide threat than they admitted at jump. http://t.co/rtKgzXzwjk,10.706952049176873,0.27714104739148704,01/08/2014 10:18 PM
Heat limits time doctors can spend in PPE to treat #ebola patients. @USAID @WhiteHouse challenge: design better suit http://t.co/9pkHzixmWB,13.892418206436327,0.237531582444241,01/08/2014 03:33 PM
RT @hp_ems: We\'re so bad at assessing real risk. #Ebola http://t.co/4x5zPkA8JK via @Cowan4President,12.5029923527736,0.693437894302003,01/09/2014 09:47 PM
RT @RT_com: #US nurses strike over insufficient #Ebola protections http://t.co/iCYbZDlQkv http://t.co/CYku6t0gVU,12.498606840357194,3.9441306927021573,01/09/2014 10:22 AM
"Perspective: #Ebola is rampant in west Africa while American scientists are busy discovering the \""stupidity\"" virus: http://t.co/dGyGmB8fGI",15.914213253983638,0.5799015903699896,01/08/2014 04:52 PM
RT @Oritavancin: No evidence the Ebola vaccine causes autism!#autism #aspergers #Psychiatry #healthcare #CDCwhistleblower #ebolahttp://‚Ä¶,14.019850424951272,3.7217318806633033,01/09/2014 06:09 AM
"PBO get elected, spike in gun sales, why are\""Whites\""men afraid? Healthcare heroes treating #Ebola patient, detained. Now #Ferguson WTH, w/RW",14.885107246514035,0.18856391146363904,01/09/2014 02:57 PM
"RT @KCBSNews: #Ebola fears, start of #flu season spur jump in sales for Clorox disinfectant wipes http://t.co/pFERvhzM1c",10.897075919320297,2.3650840280089374,01/09/2014 05:38 PM
"RT @SavetheChildren: #Ebola Crisis at a \""Tipping Point:\"" 2.5 Million Children under 5 Live in Affected Areas http://t.co/6Rgwvi5OJw",15.181401439740338,2.3592635075472526,01/09/2014 11:48 AM
"RT @AMREFCanada: @DavidFisman giving the #AmrefCoffehouse crowd an overview of Ebola -it\'s history, how it is spread #Ebola",12.254646991797035,-0.40236643167724573,01/09/2014 07:28 AM
Online Homeland security: #Senegal - #Ebola Virus Disease http://t.co/z3DP2aIsQF,14.275076249223549,2.5832463248877024,01/08/2014 07:14 PM
RT @AskCheyB: VIDEO: #EbolaLoveStory Can #CraigSpencer #MorganDixon romance survive #Ebola? http://t.co/XgjA2A1opL  @ChasingNJ @FOX29philly‚Ä¶,11.483663112111458,2.6236204062700974,01/08/2014 08:37 PM
RT @EI_EcoNewsfeed: .@EcoInternet Mali reports 2 new #Ebola deaths in capital: Canadian Press http://t.co/Zf5xs6ihnK *MORE @EI_Ebola http:/‚Ä¶,15.042270801912478,2.6561822250492133,01/08/2014 06:19 PM
"RT @AllergyKidsDoc: Actual discussion:Parent \""I want #Ebola vaccine for my child\""Doc \""There isn\'t one, but we have #flushot\""Parent \""We d‚Ä¶",15.799896374037687,2.1311681470284087,01/09/2014 04:41 AM
"RT @africarenewal: #WestAfrica on brink of major food crisis in wake of #Ebola outbreak, warns UN special rapporteur http://t.co/5MN3mYeGmw‚Ä¶",14.329521340141092,2.5955562307874307,01/09/2014 01:11 AM
I\'m not a nurse or MD but would want to help on the ground in west Africa in the #ebola fight. But how @msf ?,12.695179703268789,2.152171711547383,01/09/2014 11:14 AM
"Swimming, touching, and per diems - stories from the #Ebola response in West Africa. https://t.co/owxFcSe2FC on @aid_leap",15.67863105979502,3.565252721682472,01/09/2014 09:40 PM
#pray #hope #Ebola #victims #death #toll #outbreak #rises African - Hope - Devotion riddim [Tribute Song ] http://t.co/uRemrmxPc2,14.380153870171625,-0.07547687049668994,01/08/2014 02:54 PM
"UAB nixes university-funded trips Sierra Leone, Guinea, Liberia over #ebola concerns http://t.co/nDj0PwSbVX http://t.co/LWS2osweBt",10.81047924997701,0.6972874965734608,01/09/2014 03:59 AM
RT @EI_EcoNewsfeed: .@EcoInternet Mali reports 2 new #Ebola deaths in capital: Canadian Press http://t.co/Zf5xs6ihnK *MORE @EI_Ebola http:/‚Ä¶,13.994177798085406,5.395536630689203,01/09/2014 10:10 PM
People talking about #EBOLA is getting annoying,12.118284286670544,0.14181115945634826,01/08/2014 05:53 PM
RT @YaThinkN: Thank you @antloewenstein about bloody time #Ebola profiteering at expense of qualified NGO was pointed out :( http://t.co/gp‚Ä¶,14.666513216076563,1.6625929476022785,01/08/2014 10:02 PM
This is #BS. Can the USA sue Duncan\'s estate for bring #Ebola here? How bout the 2 nurses who got sick. #FHim https://t.co/8iT2qE2IN3,12.686223328087625,2.1368837136668537,01/10/2014 01:11 AM
"RT @WhySharksMatter: Interesting, some of the symptoms of #Ebola (bleeding from eyes, passing out, vomit) are also symptoms of watching thi‚Ä¶",15.79103272037427,-0.09979636904423739,01/08/2014 06:44 PM
"RT @WhySharksMatter: Interesting, some of the symptoms of #Ebola (bleeding from eyes, passing out, vomit) are also symptoms of watching thi‚Ä¶",11.28310811552646,1.6239396422427106,01/08/2014 01:38 PM
RT @RT_com: #US nurses strike over insufficient #Ebola protections http://t.co/iCYbZDlQkv http://t.co/CYku6t0gVU,10.536326486048534,1.8161308736753448,01/09/2014 03:00 PM
"RT @SavetheChildren: #Ebola Crisis at a \""Tipping Point:\"" 2.5 Million Children under 5 Live in Affected Areas http://t.co/6Rgwvi5OJw",14.757054249397214,2.6253571460598453,01/08/2014 09:37 PM
"Interesting, some of the symptoms of #Ebola (bleeding from eyes, passing out, vomit) are also symptoms of watching this movie #OutbreakChat",13.360564878902252,0.0538651839808062,01/09/2014 12:46 AM
RT @hniman: #Ebola nosocomial cluster in Pasteur Clinic in Bamako Mali grows to five #EbolaOutbreak CIDRAP http://t.co/3BtjBU0Cc9,12.765342852064805,4.066577433900911,01/10/2014 03:26 AM
RT @EI_EcoNewsfeed: .@EcoInternet Mali reports 2 new #Ebola deaths in capital: Canadian Press http://t.co/Zf5xs6ihnK *MORE @EI_Ebola http:/‚Ä¶,12.697173259072112,1.5653062912888718,01/09/2014 10:24 PM
RT @RT_com: #US nurses strike over insufficient #Ebola protections http://t.co/iCYbZDlQkv http://t.co/CYku6t0gVU,12.494121078263493,2.2980215551268657,01/09/2014 10:25 AM
RT @bill_easterly: Bono brings back ‚ÄòDo They Know It‚Äôs Christmas?‚Äô 4 #Ebola; it wasn\'t insulting enough the 1st time. http://t.co/xAEMEznZUK,16.213836104703944,3.8265244601659463,01/09/2014 02:35 AM
"\""@RT_com: #US nurses strike over insufficient #Ebola protections http://t.co/fQlbLT0T6u http://t.co/G4XOzXZrpa\"",""\""@RT_com: #US nurses strike over insufficient #Ebola protections http://t.co/fQlbLT0T6u http://t.co/G4XOzXZrpa\"",""Twitter for Android",11.792189290745261,5.167482247312981,01/09/2014 03:14 AM
RT @UNFPA: .@UNFPA is recruiting skilled maternal health volunteers to serve in #Ebola affected countries. Interested? http://t.co/MT3mdRna‚Ä¶,14.13480089334692,-0.5399946005918634,01/09/2014 10:34 PM
RT @YaThinkN: Thank you @antloewenstein about bloody time #Ebola profiteering at expense of qualified NGO was pointed out :( http://t.co/gp‚Ä¶,16.03195419383325,2.089722363482914,01/08/2014 08:44 PM
@cnnbrk @CNN @FOXTV @msnbc did we fix #Ebola ? We\'ve been awfully quiet after the elections...hmm,11.16302451182651,0.726835992477163,01/09/2014 04:56 AM
#WeCanLandOnACometButWeCant cure #ebola,16.02723018382452,2.334634702261888,01/09/2014 01:47 PM
RT @jasonwheelertv: Looked thru #Ebola lawsuit. No damage amount was specified. And still no word on the amount of settlement between Dunca‚Ä¶,15.168017290363553,4.801484434488383,01/09/2014 03:01 AM
"Not ONE case of #Ebola in America presently.
Surprised? You've been watching TV 'news', then.
There's your problem.",12.38981538957056,3.957512282492371,01/09/2014 02:01 PM
RT @YaThinkN: Thank you @antloewenstein about bloody time #Ebola profiteering at expense of qualified NGO was pointed out :( http://t.co/gp‚Ä¶,14.355075116580686,0.19877705518540445,01/09/2014 10:17 PM
Sobering re #HIV lessons from @H20Melb 14 die a day in Oct 2014 in west Africa from #ebola but 685 on same day from #HIV/AIDS,15.008697608714213,0.9696985605652735,01/08/2014 01:57 PM
RT @RT_com: #US nurses strike over insufficient #Ebola protections http://t.co/iCYbZDlQkv http://t.co/CYku6t0gVU,14.98665541211945,1.8043024383094046,01/09/2014 04:52 AM
"\""@RT_com: #US nurses strike over insufficient #Ebola protections http://t.co/RqQFhm3uRL http://t.co/9mDrtnOJFK\"",""\""@RT_com: #US nurses strike over insufficient #Ebola protections http://t.co/RqQFhm3uRL http://t.co/9mDrtnOJFK\"",""Twitter for Android",12.837947245799302,5.123389704438837,01/10/2014 03:58 AM
"Next week should be a lot of fun‚Ä¶ #amnesty, #Fergsuon, #ebola, #Benghazi , #irs, #holder",12.672423615978218,3.0366650034508336,01/09/2014 06:17 AM
RT @mercycorps: Skyrocketing food costs &amp; a decrease in income are part of the economic toll caused by #Ebola. Read more: http://t.co/Zv14Q‚Ä¶,16.030619100808682,0.37681575191945704,01/10/2014 03:38 AM
RT @YaThinkN: Thank you @antloewenstein about bloody time #Ebola profiteering at expense of qualified NGO was pointed out :( http://t.co/gp‚Ä¶,11.469232738988497,0.33306136675864373,01/10/2014 03:55 AM
"RT @BPForumMag: \""The virus is more nimble than the human response to it.\"" Govts &amp;orgs strive to be as agile as #Ebola http://t.co/FN59LYlKch",12.185142213500116,0.1036055684640731,01/09/2014 08:02 AM
"#Ebola Death Toll More Than 2,900 ‚ÄîWHO... http://t.co/vipFPVodvG #ebolatreatment #ebolavictims",12.966700979471481,2.4282956731535417,01/08/2014 07:36 PM
"#Ebola Could Strike 20,000 In... http://t.co/QR4WRlWHIk #StudyonEbola",13.222555036362557,2.458882357873467,01/09/2014 03:52 AM
#Ebola #Imam : 28 health care workers had contact with the deceased patient at the Clinic in #Bamako are being placed under observation.,11.345768518131461,5.377190501764102,01/09/2014 11:13 PM
Online Homeland security: #Nigeria - #Ebola Virus Disease http://t.co/20uQSIhYkh,14.278170593808557,3.1168258084836573,01/09/2014 12:26 PM
RT @hp_ems: We\'re so bad at assessing real risk. #Ebola http://t.co/4x5zPkA8JK via @Cowan4President,15.645225201242514,5.319764017374262,01/08/2014 08:33 PM
#ebola Ebola: for-profit disaster capitalists are already out looking to make money from misery | Antony Loewenstein http://t.co/x14hDFjfAd,15.337337262077671,4.421950038039391,01/09/2014 01:02 PM
RT @RT_com: #US nurses strike over insufficient #Ebola protections http://t.co/iCYbZDlQkv http://t.co/CYku6t0gVU,10.89180774161428,1.6966672651697792,01/09/2014 12:51 AM
RT @RT_com: #US nurses strike over insufficient #Ebola protections http://t.co/iCYbZDlQkv http://t.co/CYku6t0gVU,15.21185004909851,3.283108749651425,01/09/2014 08:51 PM
Thank you @antloewenstein about bloody time #Ebola profiteering at expense of qualified NGO was pointed out :( http://t.co/gpuCjNJZyL,11.10823516697067,4.553882502094915,01/09/2014 04:13 AM
RT @AJConsiderThis: Was the panic over #Ebola more virulent than the disease? http://t.co/LINv5xsMsm @VUMChealth\'s Dr. William Schaffner jo‚Ä¶,10.565496648553914,3.341887796294749,01/08/2014 05:24 PM
Online Homeland security: #Nigeria - #Ebola Virus Disease http://t.co/zGOQlcgOcr,12.164821584926958,-0.0237401794096348,01/09/2014 11:31 PM
#EBOLA has been trending 30min on the OUTBREAK page http://t.co/3P1gzZ03k7 #Tweetzup,15.707864312649708,0.7805922665978251,01/09/2014 05:11 PM
"RT @MelissaTweets: If #Ebola and #Gruber tweet on Twitter and media ignores it, do they exist?",15.558100228348298,0.2475770220568969,01/09/2014 05:01 AM
RT @WSJ: Behind the scenes at Bellevue‚Äôs #Ebola treatment ward: http://t.co/4Ee7DpsR3B http://t.co/CW8eIXjRfu,11.030202081447054,-0.07354550317717568,01/09/2014 08:39 PM
RT @SusanWojcicki: Google matches $2 for every $1 donated in the fight against Ebola. Join the fight! #Ebola http://t.co/B8DLzqFLv4),11.365254007572187,-0.08158082186600879,01/08/2014 11:16 PM
#Ebola Victim\'s Family Agree Deal With Hospital http://t.co/jKAOlgPsh4,13.825190649135854,3.779734835365926,01/09/2014 02:22 PM
#Ebola outbreak deaths pass 5000 - BBC News http://t.co/AdrXxBwatt,12.521004180890507,2.8055631915924764,01/09/2014 06:56 PM
#EBOLA: #Minister Claims #U.S. #Scientists Created #Race-Based #Bioweapons: http://t.co/8OZAJv1Qo5 via @YouTube #populationcontrol #class,16.249992787851884,3.7162632793853643,01/09/2014 04:16 PM
RT @theOFDA: 30 metric tons of personal protective equip arrives in #Liberia to protect healthcare workers on frontlines of #Ebola http://t‚Ä¶,14.294700765649527,2.6766818962048085,01/10/2014 01:32 AM
"RT @MelissaTweets: If #Ebola and #Gruber tweet on Twitter and media ignores it, do they exist?",11.413415150087095,0.1355015410339977,01/08/2014 11:50 PM
#Ebola In 3-D: A Video Game To Guide Health Care Workers Through A Ward http://t.co/ogKwVpZErQ,15.757958665307196,1.3774755831977505,01/09/2014 03:16 AM
RT @RT_com: #US nurses strike over insufficient #Ebola protections http://t.co/iCYbZDlQkv http://t.co/CYku6t0gVU,12.487101772663125,2.3512007615329633,01/08/2014 09:02 PM
"RT @TheTakeaway: There are a number of conspiracy theories in W. Africa about #Ebola,  says @hirondelleus. Fear is hard to fight. http://t.‚Ä¶",10.842655882749106,-0.09053621608564644,01/09/2014 02:25 AM
RT @Reslizumab: No evidence that the Ebola vaccine causes autism!üë™üë™üë™üë™#autism #aspergers #healthcare #CDCwhistleblower #Ebolaüë™üë™üë™üë™http://‚Ä¶,11.443088510196173,-0.146046469595984,01/08/2014 03:51 PM
Eco: Mali confirms its second and third #Ebola deaths: Washington Post: Two more people -- a patient from Guin... http://t.co/3ghvwcCDJN,15.514488327685964,2.6262125275141317,01/09/2014 07:01 AM
"If #Ebola and #Gruber tweet on Twitter and media ignores it, do they exist?",15.537183736395601,0.6003649998719378,01/09/2014 05:01 AM
"#Ebola: The need to act, rather than respond http://t.co/yxP5sN9YwW @kevinmd #health #healthcare #medicine",12.501162896713815,4.661393090468768,01/08/2014 01:33 PM
"\""#Ebola: for-profit #disastercapitalists are already out looking to make money from misery\"" #predatorycapitalismhttp://t.co/U30KOEkQGv",15.14063780081604,4.656920307184969,01/09/2014 04:51 AM
#Ebola Vaccine Trials to Start in West Africa http://t.co/M0bZTPY4RJ,14.668116537328658,1.3555712745819974,01/09/2014 09:19 PM
RT @GOPTeens: #Teens: Elect a #Republican Senate -- less #American cases of #Ebola.#Coincidence?,15.908053892788287,3.120430262171693,01/08/2014 11:15 PM
"#Ebola #Imam in #Bamako infected not only a nurse, but also a Doctor. His son, his brother&amp; 2th wife. His 1th wife, daughter and friend died",16.21704464891408,4.154860037936511,01/09/2014 10:15 PM
"RT @AfricaACSS: As #Mali faces a new #Ebola outbreak, Nigeria and Uganda offer important lessons in stopping it early: http://t.co/Kiqq44de‚Ä¶",13.939170215286861,5.366034816539741,01/09/2014 01:31 PM
Congressman #Duffy talks about #Ebola research funding - Nov 12 @ 9:31 PM ET http://t.co/ZahgziUwFb,15.679290030356388,3.0436678193882427,01/09/2014 08:05 PM
@juliarose67890 @cass_rogerss no school for you too #ebola,12.167274304134933,-0.05079499911155683,01/09/2014 09:19 AM
"Nurses March, Demand Better #Ebola Protection http://t.co/78YDSKlEQx",14.673164933684571,1.2021993660274368,01/09/2014 05:47 PM
"RT @KNX1070: #Ebola Fears, Start Of Flu Season Spur Jump In Sales For #Clorox Disinfectant Wipes http://t.co/iwWZe8ERWd",12.184798543146544,0.04474507687883911,01/09/2014 05:14 AM
"News: This is the largest #Ebola outbreak ever recorded, with more than 14,000 people... http://t.co/AaakE3rOru",14.640453868875873,-0.12684605104510815,01/10/2014 01:03 AM
Skyrocketing food costs &amp; a decrease in income are part of the economic toll caused by #Ebola. Read more: http://t.co/Zv14QrHhS2,11.342060478342276,2.5148071778681684,01/09/2014 11:01 PM
RT @genophilia: RT if you are sick of Obama exposing our children to foreign diseases. #EVD68 #Ebola #EbolaOutbreak #uniteblue http://t.co/‚Ä¶,13.384687557357768,4.385314273108778,01/08/2014 11:47 PM
RT @Reslizumab: No evidence that the Ebola vaccine causes autism!üë™üë™üë™üë™#autism #aspergers #healthcare #CDCwhistleblower #Ebolaüë™üë™üë™üë™http://‚Ä¶,16.144913917841926,0.46227267047505705,01/09/2014 09:41 AM
"Ugh. \""@kasujja: Africa, the land of simba, Cleopatra...oh and #Ebola! According to @TMZ. Really? http://t.co/yHUsZrl0oO\"",""Ugh. \""@kasujja: Africa, the land of simba, Cleopatra...oh and #Ebola! According to @TMZ. Really? http://t.co/yHUsZrl0oO\"",""Twitter for Android",12.115477161048382,4.1144336494449,01/08/2014 03:07 PM
#population Mali confirms its second and third #Ebola deaths: Washington Post http://t.co/MUiQtE8tA3 *spreading http://t.co/L3Nc07zU7X,14.91741809570521,0.5703142836398645,01/10/2014 01:58 AM
#population Mali reports 2 new #Ebola deaths in capital: Canadian Press http://t.co/a0G05VIaLY *MORE @EI_Ebola http://t.co/f1kIJJcM8Y,11.789665723724077,0.9296162116199471,01/09/2014 06:19 AM
RT @buissonnierem: ‚Äú@MSF: Any questions about #Ebola? Sign up for #MSF\'s new e-learning platform about the virus http://t.co/WD2kxGESBA htt‚Ä¶,14.450238813693069,0.9527180449613633,01/08/2014 09:33 PM
"RT @mwhaites: Pres of Nigerian nurses union says #Ebola is a global crises. We need equipment, funding and coordination. #G20 @PSIglobaluni‚Ä¶",14.098114293974502,4.05379077348131,01/08/2014 09:30 PM
‚Äú@MSF: Any questions about #Ebola? Sign up for #MSF\'s new e-learning platform about the virus http://t.co/WD2kxGESBA http://t.co/l5mKrPxikF‚Äù,12.013108322400207,3.2213865031922255,01/09/2014 09:36 AM
"RT @kim_tastiic: \""WHO staff are paid $200-300 per hour. We are doing the dirty work and get paid $300 monthly.\""- disgruntled Liberian healt‚Ä¶",11.118485701101442,0.5176987248394223,01/09/2014 08:38 PM
Zero #Ebola cases. We no longer need a Czar and certainly not a Surgeon General. #TheInmatesareRunningtheAsylum,13.367437558975915,0.029254441271123532,01/09/2014 11:55 AM
RT @UpfrontAfrica: U.S. is scaling back on number of soldiers being sent to #Ebola-stricken Liberia http://t.co/xmORFnNQqc http://t.co/u9dG‚Ä¶,11.490447915867605,3.2086849200292322,01/09/2014 08:52 PM
RT @newswatchcanada: #Bamako: #Mali quarantines dozens as second #Ebola outbreak spreads in countryhttp://t.co/1W7vvKw9w9,11.959860743095817,4.293582690973537,01/09/2014 10:23 PM
VIDEO: #EbolaLoveStory Can #CraigSpencer #MorganDixon romance survive #Ebola? http://t.co/fUwzpRIXRZ... http://t.co/tpQsWMi3aL,14.933343966722846,1.8478730516108453,01/09/2014 02:07 PM
RT @UCIEngineering: @UCIrvine is waging an #Ebola battle that might lead to cure. @michelledigman #biomedicalengineering #Ebolacure #zotht‚Ä¶,16.509696741548524,0.7299436635378354,01/08/2014 05:10 PM
RT @ONEcampaignUK: SHOCKING: One in 7 women risk dying in #childbirth in #Ebola-hit countries  http://t.co/psMrOjUD4O via @Reuters http://t‚Ä¶,14.20809439890084,1.2200225466121926,01/10/2014 02:01 AM
RT @Barbi_Twins: Hendry Co defends #monkey breeding lab negligence including #Ebola-Typical&gt;govt protects biz over bodies @JVM @ALDF http:/‚Ä¶,11.374999109927248,2.688236474411996,01/09/2014 03:23 PM
#Ebola In 3-D: A Video Game To Guide Health Care Workers Through A Ward http://t.co/20gASLOEfF Via @nprnews:,13.038609279227629,4.629861185792715,01/09/2014 07:01 AM
"RT @FollowEbola: US nurses hold strikes, protests over #Ebola measures. http://t.co/bIlGv6zSbH",15.324559599769511,0.12332077254618046,01/09/2014 10:22 PM
"RT @UNICEF: How #Ebola survivors like Patience, 19, are playing a key role in the response http://t.co/VMwaIpapbx via @irinnews",11.11361409700851,3.41911897447516,01/10/2014 02:34 AM
"RT @ONECampaign: NEWS: More than 14,000 #Ebola cases (including 4 now confirmed in Mali) &amp; more than 5,100 deaths http://t.co/WWxHYheIOS vi‚Ä¶",12.62384048196342,0.6978925962604134,01/10/2014 01:01 AM
RT @RT_com: #US nurses strike over insufficient #Ebola protections http://t.co/iCYbZDlQkv http://t.co/CYku6t0gVU,12.553837521841842,1.9813249407235984,01/09/2014 06:29 AM
"RT @SuburbanFiveOh: Real #EMT call: \""man feels sick. Says his girlfriend is from W. Africa. She hasn\'t been there in 3 years, but he\'s worr‚Ä¶",15.477426805214344,0.13547817117836658,01/10/2014 03:59 AM
RT @EI_Forest: #forest Mali confirms its second and third #Ebola deaths: Washington Post http://t.co/YmqncuIRpx *spreading http://t.co/4ZX0‚Ä¶,15.465335428832415,4.209270428472546,01/10/2014 02:17 AM
@JEZUSCEAZAR even if its not possessed the shit still dirty bitch #WhatTheDoll #Annabelle #Ebola,15.741484953934693,4.09501406311813,01/09/2014 02:06 AM
RT @AsCorrespondent: UN\'s Ban Ki-moon calls on Asia to step up #Ebola fight  http://t.co/yH3UkYPXfX  #Asia http://t.co/uv1hXYFXtM,12.491931602868435,2.709463377538274,01/09/2014 01:44 PM
#WHO staff assume that many mourners attended the ceremonies. In #Bamako and the mosque in #Guinee. #Ebola #Imam,11.005492480894754,3.2658178481848,01/09/2014 10:36 PM
RT @intldogooder: Not to miss! @FaraiToday\'s 3-part series @Forbes on #Africans\' work to curb spread of #Ebola http://t.co/18sFZsP6J5 &amp; htt‚Ä¶,14.14006881858044,4.211598308785823,01/08/2014 02:36 PM
#sustainable Mali confirms its second and third #Ebola deaths: Washington Post http://t.co/GIVMjuLGUf *spreading http://t.co/Vh9lkVhwX2,12.498352004065804,4.094398156232788,01/09/2014 02:37 AM
#forest Mali confirms its second and third #Ebola deaths: Washington Post http://t.co/YmqncuIRpx *spreading http://t.co/4ZX00sZpoq,11.216104226194542,3.3825273654908923,01/09/2014 05:03 PM
#sustainable Mali reports 2 new #Ebola deaths in capital: Canadian Press http://t.co/X5qrfndMue *MORE @EI_Ebola http://t.co/lqIKVEjY6P,12.295466282100756,2.9271056161274975,01/09/2014 02:07 PM
#forest Mali reports 2 new #Ebola deaths in capital: Canadian Press http://t.co/oxxfMXVTnB *MORE @EI_Ebola http://t.co/i3fRgEyrhh,14.24718046357894,1.5660503188937396,01/10/2014 01:11 AM
US urges #IMF to give debt relief to #Ebola stricken countries. #Liberia #SierraLeone #Guinea #development http://t.co/GHD1oU37Td,13.39096642447928,1.4237925733501031,01/09/2014 10:27 AM
"#Mali Is Worried About #Ebola, #Quarantines Nearly 100 http://t.co/Gxumwu86xy Via @nprnews",13.657783044498355,1.4854182154383029,01/09/2014 08:05 PM
If #Ebola enters #india it\'s over fr the country http://t.co/n5eCk9bByD‚Äù #fb @narendramodi,14.40508166415214,1.6255608601818317,01/09/2014 11:57 PM
RT @Reslizumab: No evidence that the Ebola vaccine causes autism!üë™üë™üë™üë™#autism #aspergers #healthcare #CDCwhistleblower #Ebolaüë™üë™üë™üë™http://‚Ä¶,13.840244947194202,-0.37387844049625585,01/10/2014 02:01 AM
RT @FAOnews: #Nowreading: West Africa ‚Äòon brink‚Äô of major food crisis in wake of #Ebola outbreak ‚Äì @UN expert http://t.co/X5LmrXPrub via @U‚Ä¶,11.22396306494961,3.4683445792685426,01/10/2014 12:22 AM
RT @Ebolatrends: Family of #Ebola Victim #ThomasEricDuncan Settles With #DallasHospital - #NBCNews... http://t.co/DmD767NfLQ http://t.co/B2‚Ä¶,16.031722144589352,2.6736664338570124,01/10/2014 04:44 AM
RT @energyaccessPN: Hear @SE4ALL CEO @KYumkella on imp of #energy #Ebola: http://t.co/CSX40YALwN Donate to @unfoundation Ebola Fund http:/‚Ä¶,13.783709490285288,2.933641968562947,01/08/2014 06:20 PM
RT @UpfrontAfrica: U.S. is scaling back on number of soldiers being sent to #Ebola-stricken Liberia http://t.co/xmORFnNQqc http://t.co/u9dG‚Ä¶,13.062564301760398,1.2370694675419802,01/09/2014 09:04 PM
Ethical Issues: Medical Experts Look For New Ways To Test #Ebola Drugs http://t.co/VtylobE9Be Via @nprnews,15.459573667170922,3.779207273228602,01/10/2014 03:29 AM
"shares that supportive care really isn\'t treatment for #Ebola so our success rate of 100% (#KentBrantly,... http://t.co/5envJehOL1",15.18151321656978,1.6085272818669787,01/09/2014 11:30 PM
RT @AashishChaudh20: Checkout our latest blog and demo on #ebola http://t.co/0ib3J5NZdq,11.173917371666832,3.7708210128869064,01/08/2014 04:38 PM
"RT @ONECampaign: NEWS: More than 14,000 #Ebola cases (including 4 now confirmed in Mali) &amp; more than 5,100 deaths http://t.co/WWxHYheIOS vi‚Ä¶",14.116330344030905,1.741251631952137,01/09/2014 05:34 PM
RT @SSIReview: The $338 Million #Ebola Giving Gap #philanthropy @DalbergTweet @VickyHausman  http://t.co/UTqvO76ejb,11.082524465144687,4.621393589790418,01/09/2014 11:49 AM
"RT @MSF: MSF is offering doctors, nurses, health educators and psychologists involved in the #Ebola fight an interactive tool http://t.co/v‚Ä¶",11.972667925044428,4.3141767929249975,01/10/2014 04:06 AM
RT @CAMAServices: Criticizing others who take risks to serve is the exact opposite reaction we should have. http://t.co/Av4puWAH6m via @REL‚Ä¶,11.875848356569477,0.20260622128773687,01/08/2014 10:11 PM
RT @YannMSF: #Ebola: #MSF Online Briefing Now Available to the Public  http://t.co/WqSnY8W8hL http://t.co/Qo9BVL3FrC,14.91387667692526,1.5081626294013981,01/09/2014 11:47 PM
"#Ebola #outbreak #deaths #pass #5000: The number of people killed by the worst outbreak of Ebola has risen to 5,160‚Ä¶ http://t.co/SY6ti5iPPM",13.878189863859081,0.01711314429649491,01/09/2014 05:21 PM
"Single-dose, needle-free #Ebola #vaccine provides long-term protection in macaques  http://t.co/HXbxeDTLYM",12.260516917851445,3.4986508141112207,01/09/2014 07:53 PM
#Ebola #outbreak #deaths #pass #5000: The number of people killed by the worst outbreak of‚Ä¶ http://t.co/NqjvlwedkK,11.111945405992493,1.1852539371468414,01/08/2014 03:42 PM
RT @AlertNet: @Oxfam says half of G20 countries have failed to deliver in fight against #Ebola - latest from @mishahussain http://t.co/u5IN‚Ä¶,10.721397291422377,4.78355072121169,01/09/2014 06:49 AM
As #Ebola takes lives in #Liberia it leaves hunger in its wake http://t.co/I9XMpcmrRc,12.524927705390137,4.022611219418346,01/09/2014 07:32 PM
#rainforest Mali confirms its second and third #Ebola deaths: Washington Post http://t.co/qKhvjhqqhh *spreading http://t.co/rOvqG0tLjk,11.439397681911391,2.74401186600668,01/09/2014 07:21 AM
#rainforest Mali reports 2 new #Ebola deaths in capital: Canadian Press http://t.co/KQLC8d9MlX *MORE @EI_Ebola http://t.co/Arbs4RHAus,16.43071418991699,0.8179556628807216,01/09/2014 05:43 AM
@YoursTrulyNisa Riiiiiiiiiiiiiiiiiiiiiiiiight #ebola,14.439390790252727,3.62939603733379,01/09/2014 05:35 AM
Settlement Quickly Reached in Ebola Death Case - http://t.co/6peMykKiuY #ebola,13.459076589759096,4.330610912300182,01/09/2014 01:49 AM
"West Africa now on the brink of a food crisis, UN reports. #Ebola http://t.co/bLCTMxV51i",11.911376834872957,2.779567103880808,01/09/2014 11:38 PM
Health and Human Services: We Have the Right Strategy in Place - http://t.co/zAZZhPqZ1W #ebola,14.49871059875724,0.016914226430688295,01/09/2014 05:54 AM
RT @hniman: #Ebola nosocomial cluster in Pasteur Clinic in Bamako Mali grows to five #EbolaOutbreak CIDRAP http://t.co/3BtjBU0Cc9,15.906466515896152,2.7990961449915375,01/09/2014 09:00 PM
Foundout.. Gumi sceptical about Jonathan\'s declaration: A patient that recovers from Ebola ... http://t.co/xveOQE053y ..#Ebola..#Nigeria,12.545751269983253,2.075660756167948,01/08/2014 11:55 PM
#Ebola nasal#vaccine under threat as funding runs dry http://t.co/MZ09zVb7qI via @InPharmaTechno,16.167274489843063,2.882819683270009,01/10/2014 03:36 AM
"#Liberia\'s #Ebola Corpse Squads http://t.co/7ncXPcLOFR http://t.co/8ngMzeITNJ\"",""#Liberia\'s #Ebola Corpse Squads http://t.co/7ncXPcLOFR http://t.co/8ngMzeITNJ\"",""Twitter for Android",16.04442586809149,3.7775502898868494,01/09/2014 03:50 AM
"RT @RT_com: #Ebola death toll surpasses 5,000 - WHO http://t.co/vdsIIjJoQE http://t.co/NvufkGGuCm",11.042995155836905,0.4433315723060014,01/09/2014 03:33 PM
"RT @kasujja: Africa, the land of simba, Cleopatra...oh and #Ebola! According to @TMZ.  Really? Humour? Ignorance? Indifference? http://t.co‚Ä¶",14.215659880872286,1.6118539153607223,01/10/2014 01:12 AM
RT @newswatchcanada: #Bamako: #Mali quarantines dozens as second #Ebola outbreak spreads in countryhttp://t.co/1W7vvKw9w9,12.284804244746176,5.097566741638879,01/08/2014 04:56 PM
#Ebola nosocomial cluster in Pasteur Clinic in Bamako Mali grows to five #EbolaOutbreak CIDRAP http://t.co/3BtjBU0Cc9,12.642656808072463,-0.5328800838925436,01/09/2014 05:16 PM
RT @WSJ: Behind the scenes at Bellevue‚Äôs #Ebola treatment ward: http://t.co/4Ee7DpsR3B http://t.co/CW8eIXjRfu,14.448556380574331,0.13845351909545034,01/09/2014 10:20 AM
RT @theOFDA: 30 metric tons of personal protective equip arrives in #Liberia to protect healthcare workers on frontlines of #Ebola http://t‚Ä¶,14.617953304666944,2.4008599072780497,01/08/2014 11:06 PM
Now that ppl n #America getn #Ebola had a cure all this time.Ppl have been dying n #Africa Now you want a donationüòí http://t.co/aP995SxHbK,14.022907494819382,0.6576169872380928,01/10/2014 02:27 AM
#Ebola Mali confirms its second and third #Ebola deaths: Washington Post http://t.co/TjZEg7sw2X *spreading http://t.co/LSRybxxr1d,11.018919309703938,5.023192814695765,01/09/2014 02:59 AM
"Africa, the land of simba, Cleopatra...oh and #Ebola! According to @TMZ.  Really? Humour? Ignorance? Indifference? http://t.co/vOc1asFXrc",10.6897562274571,4.804275350670626,01/10/2014 01:52 AM
"RT @TheTakeaway: There are a number of conspiracy theories in W. Africa about #Ebola,  says @hirondelleus. And fear is hard to fight. http:‚Ä¶",14.274491750367,2.7837213165685486,01/09/2014 07:55 PM
"#Ebola survivor, Dr. Craig Spencer: ‚ÄòPlease join me in turning our attention back to West Africa‚Äô... http://t.co/r0roBgWBbr",16.15586134696281,2.1627290525298632,01/08/2014 11:56 PM
Background about the new #Ebola case in #Mali: the transmission chain starts in #Guinea on 17th of oct. http://t.co/Ezwxbuzypl,14.64931056536141,2.139706716825765,01/09/2014 04:37 PM
RT @DFID_UK: .@BillGates meets the DFID #Ebola team today ahead of his @UKHouseofLords speech and Q&amp;A this evening. http://t.co/hwKR63ufpF,11.283126363173622,0.050082692798270934,01/09/2014 02:40 AM
"RT @katarinah: Swedish troops just arrived in #Timbuktu, more expected next week. Let\'s hope #MINUSMA has #Ebola action plan for staff outs‚Ä¶",11.01047894156175,0.9769559823010963,01/09/2014 01:02 AM
@jimmymackin at least it is not #ebola.. I hope #WaterCooler,15.138908083072108,4.709661196695,01/10/2014 04:37 AM
RT @AJConsiderThis: Was the panic over #Ebola more virulent than the disease? http://t.co/LINv5xsMsm @VUMChealth\'s Dr. William Schaffner jo‚Ä¶,12.756682142491474,4.790412931372352,01/10/2014 03:48 AM
Facebook to encourage users to donate to Ebola fight   http://t.co/1Jb8umF0i4  #ebola #facebook #theredcross,11.213619528652652,0.4197773110051233,01/09/2014 09:40 PM
RT @BK00023: @morrislaw he is with the #Ebola Czar,13.113727462156469,0.21534076941364377,01/09/2014 12:42 PM
Mali confirms its second and third #Ebola deaths http://t.co/m0BjIUpNOI http://t.co/EcOlg6uL4e,12.070674060658117,3.107859448366638,01/09/2014 10:30 PM
"@abronxchick @DaleMoss2 not only should they have sent him home, they Should of sent his #ebola ass ass back HOME TO AFRICA! FOH",15.719008632121255,1.944694945456523,01/09/2014 08:58 AM
#Ebola Mali reports 2 new #Ebola deaths in capital: Canadian Press http://t.co/644IYqazNJ *MORE @EI_Ebola http://t.co/1PxKZpcWYg,12.575240766866509,2.1830810848052824,01/09/2014 02:34 AM
RT @AlaOG: Listen to Anne Bennett @HirondelleUSA on fear and mistrust during the ebola epidemic in Africa http://t.co/uxNwMds5m3 @hirondell‚Ä¶,11.258299281515704,0.6892004784916921,01/10/2014 02:29 AM
Kinda hope the #EbolaCrisis wipes out humanity #Ebola,14.516583217029723,5.3709851101418815,01/10/2014 12:03 AM
RT @qldnursesunion: Earlier today Australian nurses spoke with Liberian Ebola workers on the frontline. #g20 #ebola #oznurses #qldpol http:‚Ä¶,12.132720635272936,1.455258950061457,01/09/2014 11:06 PM
"\""@WorkoutHumor: This deserves endless RT‚Äôs http://t.co/TWgD6jOyK8\"" #Ebola",11.882819465717438,4.354180461769443,01/08/2014 02:42 PM
"RT @TheTakeaway: There are a number of conspiracy theories in W. Africa about #Ebola,  says @hirondelleus. Fear is hard to fight. http://t.‚Ä¶",13.199634938391503,2.6212122844860817,01/09/2014 05:42 AM
Was the panic over #Ebola more virulent than the disease? http://t.co/LINv5xsMsm @VUMChealth\'s Dr. William Schaffner joins @AMoraTV tonight,10.998265585680864,4.88052833704142,01/09/2014 04:05 PM
#Ebola US veterinary group issues guidelines for handling Ebola exposure in pets - Xinhua http://t.co/C7FRdMWWyB,12.969691917535865,3.067574902117767,01/10/2014 04:09 AM
"More than 5,000 #Ebola deaths, says WHO http://t.co/TzBOekydeK via @YahooNews #SierraLeon #Liberia #CDC #WestAfrica #ThomasEricDuncan",10.652188622630714,3.402968437075417,01/09/2014 09:20 AM
RT @SusanWojcicki: Google matches $2 for every $1 donated in the fight against Ebola. Join the fight! #Ebola http://t.co/B8DLzqFLv4),12.892589626864956,3.3247551387478618,01/08/2014 07:08 PM
@RocketsManJoel @Rags2Rockets cuz I get stupid i mean outrageous stay away if ur contagious! #Ebola,14.739680594806277,1.4590814305448094,01/09/2014 06:07 AM
@abronxchick @DaleMoss2 wait what!!!! The hospital should be suing THEM!!!! He shouldn\'t have brought his #ebola ass to America,13.21756553122567,-0.08842947301623383,01/08/2014 07:13 PM
"Sierra Leone Ship docks in #florida Cape Canaveral some sightseeing in and fun, would you like to meet them too? #ksc #Ebola #SierraLeone",13.954837499402668,-0.17503823944615382,01/10/2014 01:31 AM
RT @Int_Travelers: RT @JubileeUSA: Huge News: US asks #IMF to cancel debt for countries dealing with #Ebola. http://t.co/nYnCsVc1m1 @Eric_L‚Ä¶,11.685807908736919,2.010393846553192,01/08/2014 06:52 PM
RT @Peepsqueak: US nurses strike over insufficient #Ebola protections | rt #news http://t.co/CmFXQc9n7C,16.105007725957734,3.9097339262591397,01/10/2014 02:48 AM
"RT @Laurie_Garrett: Today @UNDP took over payroll at #Liberia MinHlth. Some got paid for 1st time in 3 mos, but I know 2 #Ebola staff got 1‚Ä¶",14.087306816228732,-0.37449454976510665,01/08/2014 06:20 PM
Ebola fight to be a top topic for Congress http://t.co/285XhUGHLJ #ebola,14.137532491316438,4.063684784954405,01/09/2014 04:58 AM
Mali races to head off Ebola outbreak after second death http://t.co/Q74XtkNGkO #ebola,13.761368977640362,0.9561815911104177,01/10/2014 04:03 AM
Band Aid song Do They Know Its Christmas? re-recorded for Ebola cause http://t.co/bITeGx1bvw #ebola,11.65366961139723,4.046246495764368,01/10/2014 12:52 AM
RT @SusanWojcicki: Google matches $2 for every $1 donated in the fight against Ebola. Join the fight! #Ebola http://t.co/B8DLzqFLv4),13.750051055413357,3.8198612186654612,01/08/2014 11:22 PM
RT @SandroDemaio: Our PM talks about #Ebola &amp; building the economy - missing the biggest issues of #NCDs &amp; economic inequality! #H20MELB #a‚Ä¶,14.251566792074463,4.798261408298742,01/08/2014 02:22 PM
RT @EbolaOutbreakUS: #Ebola is in #Florida  RT PLEASE THANKS! #florida is monitoring 9 people for #ebola in #florida! http://t.co/HmI3GzKD5q,13.055688165613802,1.6002132575630679,01/09/2014 11:01 AM
RT @SusanWojcicki: Google matches $2 for every $1 donated in the fight against Ebola. Join the fight! #Ebola http://t.co/B8DLzqFLv4),14.391522631463507,4.778109369806558,01/09/2014 11:36 PM
"RT @ftcomment: \""We need the WHO more than ever - starving it of funds is reckless\"" - Lawrence Summers (@LHSummers) http://t.co/n4QSTRFsQg #‚Ä¶",12.393111184267537,-0.08447978134617706,01/10/2014 12:23 AM
"RT fml_katie: RT SavetheChildren: #Ebola Crisis at a \""Tipping Point:\"" 2.5 Million Children under 5 Live in Affec... http://t.co/xEaEiM9Gvx",11.095914202357289,4.615108955757971,01/09/2014 10:43 PM
RT @SusanWojcicki: Google matches $2 for every $1 donated in the fight against Ebola. Join the fight! #Ebola http://t.co/B8DLzqFLv4),12.847971191881747,0.11502946537580705,01/09/2014 11:06 PM
RT @YourAnonGlobal: #US nurses strike over insufficient #Ebola protections http://t.co/mYv6Aget3r http://t.co/GMGV5KtPVg,12.99388076718761,4.300375512494697,01/09/2014 08:55 PM
RT GODRUS: RT Potrblog: It appears #Obama flew an #IllegalImmigrant #African #Ebola Victim To #USA from #Maspalo... http://t.co/CtGUK6SlNr,11.375015890206496,-0.07949667069567568,01/09/2014 04:36 AM
#Disney #JustinBieber ROLL ONE TO THIS SONG!! VERY RARE VISUALZ OMG WOW #NewToronto https://t.co/pDX2AVK3wz #Frozen #Ebola,13.612707505782943,2.318740267567186,01/09/2014 10:25 AM
Most detailed report on new #Ebola cases in #Mali. Imam traveled a lot sick before he died and still traveled on dead http://t.co/Ezwxbuzypl,11.915368686871092,-0.4498472624431491,01/09/2014 09:13 AM
RT @eAsiaMediaHub: @StateDeptSpox Psaki: We welcome #Japan‚Äôs ... additional $100 million contribution to the response to the #Ebola crisis ‚Ä¶,11.17143327299907,3.388597778400725,01/09/2014 09:14 AM
"RT @Potrblog: Late Saturday night, #HealthDept notified media outlets that a person with \""some risk\"" for #Ebola is in #Charlottehttp://t.‚Ä¶",12.115552355651477,-0.004342567346636628,01/09/2014 04:20 AM
RT @Barbi_Twins: Hendry Co defends #monkey breeding lab negligence including #Ebola-Typical&gt;govt protects biz over bodies @JVM @ALDF http:/‚Ä¶,15.29845761560194,2.0926826978630686,01/09/2014 08:58 AM
RT @UN: Stopping #Ebola as fast as possible is #1 priority - @UNMEER\'s @UNBanbury on #EbolaResponse http://t.co/oL7D5eySMw http://t.co/jSu0‚Ä¶,12.8442250964089,4.46216802329144,01/09/2014 06:18 PM
"RT @EminemsRevenge: @MotherJones #Ebola, #Darfut, #BringBackOurGirls?? GREAT hashtags for a RT?",14.386337079116377,0.5456275609651577,01/10/2014 03:20 AM
"RT @neva9257: So actually, the government keeping serums under wraps is pretty similar to the current #Ebola outbreak.",12.092966244660783,1.229572484412611,01/08/2014 02:57 PM
"RT @RT_com: #Ebola death toll surpasses 5,000 - WHO http://t.co/vdsIIjJoQE http://t.co/NvufkGGuCm",16.365036888535307,1.5623497469137186,01/08/2014 11:44 PM
"RT @SavetheChildren: #Ebola Crisis at a \""Tipping Point:\"" 2.5 Million Children under 5 Live in Affected Areas http://t.co/6Rgwvi5OJw",14.459104590336628,3.897951749012856,01/09/2014 07:45 PM
RT @Potrblog: It appears #Obama flew an #IllegalImmigrant #African #Ebola Victim To #USA from #Maspalomashttps://t.co/wemnyMeEG6 http://t‚Ä¶,16.068912086622113,4.296912278448274,01/09/2014 01:22 PM
RT @ChannelNewsAsia: New Zealand police rule out presence of #Ebola in one of three vials found in mailboxes http://t.co/vV7uxDOlBz http://‚Ä¶,12.022641279318705,3.4453467804530113,01/08/2014 06:06 PM
"RT @Laurie_Garrett: Today @UNDP took over payroll at #Liberia MinHlth. Some got paid for 1st time in 3 mos, but I know 2 #Ebola staff got 1‚Ä¶",14.409758945623649,0.2032096169272286,01/09/2014 01:23 AM
#ecology Mali reports 2 new #Ebola deaths in capital: Canadian Press http://t.co/oqUmUiMb6l *MORE @EI_Ebola http://t.co/e8vTvwDFJD,13.771708448583087,4.714917649458877,01/08/2014 07:58 PM
RT @wessmith123: The U.S. is now #Ebola Free! Fox must be FREAKING OUT! #UniteBlue #TNTweeters #LibCrib http://t.co/GmjcPnGgid http://t.co/‚Ä¶,12.616892407839279,2.9883695910678663,01/08/2014 03:32 PM
RT @RT_com: #US nurses strike over insufficient #Ebola protections http://t.co/iCYbZDlQkv http://t.co/CYku6t0gVU,10.77557381213359,0.1912061260136868,01/08/2014 11:49 PM
Mali reports 2 new #Ebola deaths in capital http://t.co/okubSNH7VM http://t.co/KrnPmFptjW,11.47942154026791,3.6176713413848303,01/09/2014 02:24 PM
